{"_type":"location","_id":"loc1506352987832551","name":"140 W. Flagler Street Garage","locationDisplayName":"","slug":{"_type":"slug","current":"140-w-flagler-street-garage"},"featured":false,"physicalAddress":{"_type":"object","address1":"140 W. Flagler Street","address2":"","city":"Miami","state":"FL","zip":"33130"},"mduid":"loc1506352987832551","publicHours":{"_type":"object","monday":{"isOpen":false},"tuesday":{"isOpen":false},"wednesday":{"isOpen":false},"thursday":{"isOpen":false},"friday":{"isOpen":false},"saturday":{"isOpen":false},"sunday":{"isOpen":false},"notes":"Closed Saturday and Sunday; County Holidays"},"geo":{"_type":"object","x":920522.492,"y":524222.745}}
{"_type":"location","_id":"loc1503430467847480","name":"Accion Community Center","locationDisplayName":"","slug":{"_type":"slug","current":"accion-community-resource-center"},"featured":false,"physicalAddress":{"_type":"object","address1":"970 SW 1st Street","address2":"4th Floor","city":"Miami","state":"FL","zip":"33130"},"mduid":"loc1503430467847480","publicHours":{"_type":"object","monday":{"isOpen":false},"tuesday":{"isOpen":false},"wednesday":{"isOpen":false},"thursday":{"isOpen":false},"friday":{"isOpen":false},"saturday":{"isOpen":false},"sunday":{"isOpen":false},"notes":""},"geo":{"_type":"object","x":915994.6992973166,"y":523706.8182338565}}
{"_type":"location","_id":"loc1450711570891505","name":"A.D. Barnes Park","locationDisplayName":"A.D. Barnes Park","slug":{"_type":"slug","current":"ad-barnes-park"},"featured":false,"physicalAddress":{"_type":"object","address1":"3401 SW 72nd Ave","address2":"","city":"Miami","state":"FL","zip":"33155"},"mduid":"loc1450711570891505","publicHours":{"_type":"object","monday":{"isOpen":false},"tuesday":{"isOpen":false},"wednesday":{"isOpen":false},"thursday":{"isOpen":false},"friday":{"isOpen":false},"saturday":{"isOpen":false},"sunday":{"isOpen":false},"notes":"Office Hours\nnoon - 5 p.m., Monday - Sunday\nPool facility open year-round"},"geo":{"_type":"object","x":883522.314,"y":510674.422}}
{"_type":"location","_id":"loc1539974236872226","name":"A.D. Barnes Park Nature Center","locationDisplayName":"A.D. Barnes Park Nature Center","slug":{"_type":"slug","current":"ad-barnes-park-nature-center"},"featured":false,"physicalAddress":{"_type":"object","address1":"3401 SW 72nd Ave","address2":"","city":"Miami","state":"FL","zip":"33155"},"mduid":"loc1539974236872226","publicHours":{"_type":"object","monday":{"isOpen":false},"tuesday":{"isOpen":false},"wednesday":{"isOpen":false},"thursday":{"isOpen":false},"friday":{"isOpen":false},"saturday":{"isOpen":false},"sunday":{"isOpen":false},"notes":""},"geo":{"_type":"object"}}
{"_type":"location","_id":"loc1496164873839100","name":"Airport District Police Station","locationDisplayName":"","slug":{"_type":"slug","current":"airport-district-police-station"},"featured":false,"physicalAddress":{"_type":"object","address1":"4200 NW 21 Street","address2":"","city":"Miami","state":"FL","zip":"33122"},"mduid":"loc1496164873839100","publicHours":{"_type":"object","monday":{"isOpen":false},"tuesday":{"isOpen":false},"wednesday":{"isOpen":false},"thursday":{"isOpen":false},"friday":{"isOpen":false},"saturday":{"isOpen":false},"sunday":{"isOpen":false},"notes":""},"geo":{"_type":"object"}}
{"_type":"location","_id":"loc1748963329879457","name":"Allapattah","locationDisplayName":"","slug":{"_type":"slug","current":"allapattah-community-resource-center"},"featured":false,"physicalAddress":{"_type":"object","address1":"1897 NW 20th Street","address2":"","city":"Miami","state":"FL","zip":"33130"},"mduid":"loc1748963329879457","publicHours":{"_type":"object","monday":{"isOpen":false},"tuesday":{"isOpen":false},"wednesday":{"isOpen":false},"thursday":{"isOpen":false},"friday":{"isOpen":false},"saturday":{"isOpen":false},"sunday":{"isOpen":false},"notes":""},"geo":{"_type":"object","x":910429.8743951255,"y":531904.4233643118}}
{"_type":"location","_id":"loc1487786598059771","name":"Applicant Leasing Center","locationDisplayName":"","slug":{"_type":"slug","current":"applicant-leasing-center"},"featured":false,"physicalAddress":{"_type":"object","address1":"701 NW 1st Court","address2":"14th Floor","city":"Miami","state":"FL","zip":"33136"},"mduid":"loc1487786598059771","publicHours":{"_type":"object","monday":{"isOpen":false},"tuesday":{"isOpen":false},"wednesday":{"isOpen":false},"thursday":{"isOpen":false},"friday":{"isOpen":false},"saturday":{"isOpen":false},"sunday":{"isOpen":false},"notes":""},"geo":{"_type":"object","x":920522.7190279309,"y":527012.0501774907}}
{"_type":"location","_id":"loc1523994251802504","name":"Arch Creek Park","locationDisplayName":"Arch Creek Park","slug":{"_type":"slug","current":"arch-creek-park"},"featured":false,"physicalAddress":{"_type":"object","address1":"1855 NE 135th Street","address2":"","city":"North Miami Beach","state":"FL","zip":"33181"},"mduid":"loc1523994251802504","publicHours":{"_type":"object","monday":{"isOpen":false},"tuesday":{"isOpen":false},"wednesday":{"isOpen":false},"thursday":{"isOpen":false},"friday":{"isOpen":false},"saturday":{"isOpen":false},"sunday":{"isOpen":false},"notes":"Closed Mondays and Tuesdays"},"geo":{"_type":"object","x":931573.974,"y":570565.373}}
{"_type":"location","_id":"loc1539974196848794","name":"Arch Creek Park Nature Center","locationDisplayName":"Arch Creek Park Nature Center","slug":{"_type":"slug","current":"arch-creek-park-nature-center"},"featured":false,"physicalAddress":{"_type":"object","address1":"1855 NE 135th Street","address2":"","city":"North Miami Beach","state":"FL","zip":"33181"},"mduid":"loc1539974196848794","publicHours":{"_type":"object","monday":{"isOpen":false},"tuesday":{"isOpen":false},"wednesday":{"isOpen":false},"thursday":{"isOpen":false},"friday":{"isOpen":false},"saturday":{"isOpen":false},"sunday":{"isOpen":false},"notes":"Closed Mondays and Tuesdays."},"geo":{"_type":"object","x":931573.974,"y":570565.373}}
{"_type":"location","_id":"loc1523994381303658","name":"Bill Sadowski Park","locationDisplayName":"Bill Sadowski Park","slug":{"_type":"slug","current":"bill-sadowski-park"},"featured":false,"physicalAddress":{"_type":"object","address1":"17555 SW 79th Avenue","address2":"","city":"Palmetto Bay","state":"FL","zip":"33157"},"mduid":"loc1523994381303658","publicHours":{"_type":"object","monday":{"isOpen":false},"tuesday":{"isOpen":false},"wednesday":{"isOpen":false},"thursday":{"isOpen":false},"friday":{"isOpen":false},"saturday":{"isOpen":false},"sunday":{"isOpen":false},"notes":""},"geo":{"_type":"object"}}
{"_type":"location","_id":"loc1539974220075122","name":"Bill Sadowski Park Nature Center","locationDisplayName":"Bill Sadowski Park Nature Center","slug":{"_type":"slug","current":"bill-sadowski-park-nature-center"},"featured":false,"physicalAddress":{"_type":"object","address1":"17555 SW 79th Avenue","address2":"","city":"Palmetto Bay","state":"FL","zip":"33157"},"mduid":"loc1539974220075122","publicHours":{"_type":"object","monday":{"isOpen":false},"tuesday":{"isOpen":false},"wednesday":{"isOpen":false},"thursday":{"isOpen":false},"friday":{"isOpen":false},"saturday":{"isOpen":false},"sunday":{"isOpen":false},"notes":""},"geo":{"_type":"object"}}
{"_type":"location","_id":"loc1477078097036260","name":"Biscayne Building","locationDisplayName":"","slug":{"_type":"slug","current":"biscayne-building"},"featured":false,"physicalAddress":{"_type":"object","address1":"19 West Flagler Street","address2":"","city":"Miami","state":"FL","zip":"33130"},"mduid":"loc1477078097036260","publicHours":{"_type":"object","monday":{"isOpen":false},"tuesday":{"isOpen":false},"wednesday":{"isOpen":false},"thursday":{"isOpen":false},"friday":{"isOpen":false},"saturday":{"isOpen":false},"sunday":{"isOpen":false},"notes":""},"geo":{"_type":"object","x":921417.092,"y":524475.681}}
{"_type":"location","_id":"loc1521485414632549","name":"Briar Bay Golf Course","locationDisplayName":"Briar Bay Golf Course","slug":{"_type":"slug","current":"briar-bay-golf-course"},"featured":false,"physicalAddress":{"_type":"object","address1":"9399 SW 134th Street","address2":"","city":"Miami","state":"FL","zip":"33176"},"mduid":"loc1521485414632549","publicHours":{"_type":"object","monday":{"isOpen":false},"tuesday":{"isOpen":false},"wednesday":{"isOpen":false},"thursday":{"isOpen":false},"friday":{"isOpen":false},"saturday":{"isOpen":false},"sunday":{"isOpen":false},"notes":"Last tee time is at 6 p.m."},"geo":{"_type":"object","x":871411.049,"y":477302.163}}
{"_type":"location","_id":"loc1645626328846984","name":"Cagni Park","locationDisplayName":"Cagni Park Mobile Covid Testing Location","slug":{"_type":"slug","current":"cagni-park"},"featured":false,"physicalAddress":{"_type":"object","address1":"13498 NE 8th Avenue","address2":"","city":"North Miami","state":"FL","zip":"33161"},"mduid":"loc1645626328846984","publicHours":{"_type":"object","monday":{"isOpen":false},"tuesday":{"isOpen":false},"wednesday":{"isOpen":false},"thursday":{"isOpen":false},"friday":{"isOpen":false},"saturday":{"isOpen":false},"sunday":{"isOpen":false},"notes":""},"geo":{"_type":"object"}}
{"_type":"location","_id":"loc1745420918699641","name":"Camp Owaissa Bauer","locationDisplayName":"Camp Owaissa Bauer","slug":{"_type":"slug","current":"camp-owaissa-bauer"},"featured":false,"physicalAddress":{"_type":"object","address1":"17001 SW 264th Street","address2":"","city":"Homestead","state":"FL","zip":"33031"},"mduid":"loc1745420918699641","publicHours":{"_type":"object","monday":{"isOpen":false},"tuesday":{"isOpen":false},"wednesday":{"isOpen":false},"thursday":{"isOpen":false},"friday":{"isOpen":false},"saturday":{"isOpen":false},"sunday":{"isOpen":false},"notes":""},"geo":{"_type":"object","x":831723.7456765297,"y":432785.98980036186}}
{"_type":"location","_id":"loc1523994573354388","name":"Castellow Hammock Park","locationDisplayName":"Castellow Hammock Park","slug":{"_type":"slug","current":"castellow-hammock-park"},"featured":false,"physicalAddress":{"_type":"object","address1":"22301 SW 162nd Avenue","address2":"","city":"Miami","state":"FL","zip":"33170"},"mduid":"loc1523994573354388","publicHours":{"_type":"object","monday":{"isOpen":false},"tuesday":{"isOpen":false},"wednesday":{"isOpen":false},"thursday":{"isOpen":false},"friday":{"isOpen":false},"saturday":{"isOpen":false},"sunday":{"isOpen":false},"notes":"Closed Mondays and Tuesdays"},"geo":{"_type":"object","x":837933.939,"y":446090.315}}
{"_type":"location","_id":"loc1539974272349791","name":"Castellow Hammock Park Nature Center","locationDisplayName":"Castellow Hammock Park Nature Center","slug":{"_type":"slug","current":"castellow-hammock-park-nature-center"},"featured":false,"physicalAddress":{"_type":"object","address1":"22301 SW 162nd Avenue","address2":"","city":"Miami","state":"FL","zip":"33170"},"mduid":"loc1539974272349791","publicHours":{"_type":"object","monday":{"isOpen":false},"tuesday":{"isOpen":false},"wednesday":{"isOpen":false},"thursday":{"isOpen":false},"friday":{"isOpen":false},"saturday":{"isOpen":false},"sunday":{"isOpen":false},"notes":"Closed Mondays and Tuesdays."},"geo":{"_type":"object"}}
{"_type":"location","_id":"loc1496765392203142","name":"Central Intake","locationDisplayName":"","slug":{"_type":"slug","current":"central-intake"},"featured":false,"physicalAddress":{"_type":"object","address1":"3140 NW 76th Street","address2":"","city":"Miami","state":"FL","zip":"33147"},"mduid":"loc1496765392203142","publicHours":{"_type":"object","monday":{"isOpen":false},"tuesday":{"isOpen":false},"wednesday":{"isOpen":false},"thursday":{"isOpen":false},"friday":{"isOpen":false},"saturday":{"isOpen":false},"sunday":{"isOpen":false},"notes":""},"geo":{"_type":"object","x":903318.689,"y":549451.46}}
{"_type":"location","_id":"loc1464790236087206","name":"Central Transfer Station","locationDisplayName":"","slug":{"_type":"slug","current":"central-transfer-station"},"featured":false,"physicalAddress":{"_type":"object","address1":"1150 NW 20 Street","address2":"","city":"Miami","state":"FL","zip":"33127"},"mduid":"loc1464790236087206","publicHours":{"_type":"object","monday":{"isOpen":false},"tuesday":{"isOpen":false},"wednesday":{"isOpen":false},"thursday":{"isOpen":false},"friday":{"isOpen":false},"saturday":{"isOpen":false},"sunday":{"isOpen":false},"notes":""},"geo":{"_type":"object","x":914894.535,"y":531820.221}}
{"_type":"location","_id":"loc1464726680423100","name":"Chapman Field Trash and Recycling Center","locationDisplayName":"","slug":{"_type":"slug","current":"chapman-field-trash-and-recycling-center"},"featured":false,"physicalAddress":{"_type":"object","address1":"13600 Old Cutler Road","address2":"","city":"Coral Gables","state":"FL","zip":"33158"},"mduid":"loc1464726680423100","publicHours":{"_type":"object","monday":{"isOpen":false},"tuesday":{"isOpen":false},"wednesday":{"isOpen":false},"thursday":{"isOpen":false},"friday":{"isOpen":false},"saturday":{"isOpen":false},"sunday":{"isOpen":false},"notes":""},"geo":{"_type":"object","x":886240.95,"y":477206.743}}
{"_type":"location","_id":"loc1506370965674808","name":"Civic Center Jury Lot","locationDisplayName":"","slug":{"_type":"slug","current":"civic-center-jury-lot"},"featured":false,"physicalAddress":{"_type":"object","address1":"1250 NW 12th Street","address2":"","city":"Miami","state":"FL","zip":"33136"},"mduid":"loc1506370965674808","publicHours":{"_type":"object","monday":{"isOpen":false},"tuesday":{"isOpen":false},"wednesday":{"isOpen":false},"thursday":{"isOpen":false},"friday":{"isOpen":false},"saturday":{"isOpen":false},"sunday":{"isOpen":false},"notes":"Public Parking starts at 10 a.m. daily\nClosed Saturday and Sunday; County Holidays"},"geo":{"_type":"object","x":914308.64,"y":528481.639}}
{"_type":"location","_id":"loc150635414445456","name":"Civic Center Lot 25 (Kristi House)","locationDisplayName":"","slug":{"_type":"slug","current":"civic-center-lot-25-kristi-house"},"featured":false,"physicalAddress":{"_type":"object","address1":"1355 NW 12th Avenue","address2":"","city":"Miami","state":"FL","zip":"33136"},"mduid":"loc150635414445456","publicHours":{"_type":"object","monday":{"isOpen":false},"tuesday":{"isOpen":false},"wednesday":{"isOpen":false},"thursday":{"isOpen":false},"friday":{"isOpen":false},"saturday":{"isOpen":false},"sunday":{"isOpen":false},"notes":"Closed Saturday and Sunday; County Holidays"},"geo":{"_type":"object"}}
{"_type":"location","_id":"loc1600115917132150","name":"Code Enforcement, Clerk of the Courts","locationDisplayName":"","slug":{"_type":"slug","current":"clerk-of-the-courts"},"featured":false,"physicalAddress":{"_type":"object","address1":"111 NW 1st Street","address2":"Suite 17-50","city":"Miami","state":"FL","zip":"33128"},"mduid":"loc1600115917132150","publicHours":{"_type":"object","monday":{"isOpen":false},"tuesday":{"isOpen":false},"wednesday":{"isOpen":false},"thursday":{"isOpen":false},"friday":{"isOpen":false},"saturday":{"isOpen":false},"sunday":{"isOpen":false},"notes":""},"geo":{"_type":"object","x":920525.965,"y":524938.24}}
{"_type":"location","_id":"loc1604412580328182","name":"Coconut Grove Community Resource Center","locationDisplayName":"","slug":{"_type":"slug","current":"coconut-grove-resource-center"},"featured":false,"physicalAddress":{"_type":"object","address1":"3692 Grand Avenue","address2":"","city":"Miami","state":"FL","zip":"33133"},"mduid":"loc1604412580328182","publicHours":{"_type":"object","monday":{"isOpen":false},"tuesday":{"isOpen":false},"wednesday":{"isOpen":false},"thursday":{"isOpen":false},"friday":{"isOpen":false},"saturday":{"isOpen":false},"sunday":{"isOpen":false},"notes":""},"geo":{"_type":"object","x":901948.685,"y":507320.03}}
{"_type":"location","_id":"loc1599256640603986","name":"Code Enforcement","locationDisplayName":"","slug":{"_type":"slug","current":"code-enforcement"},"featured":false,"physicalAddress":{"_type":"object","address1":"2525 NW 62nd Street","address2":"Suite 4132A","city":"Miami","state":"FL","zip":"33147"},"mduid":"loc1599256640603986","publicHours":{"_type":"object","monday":{"isOpen":false},"tuesday":{"isOpen":false},"wednesday":{"isOpen":false},"thursday":{"isOpen":false},"friday":{"isOpen":false},"saturday":{"isOpen":false},"sunday":{"isOpen":false},"notes":"Office Access:\nMetrorail - Please exit at the MLK Station\nParking - Paid parking is available next to the building"},"geo":{"_type":"object","x":906225.703,"y":545230.366}}
{"_type":"location","_id":"loc1480368540991643","name":"Community Action & Human Services (Main Office)","locationDisplayName":"","slug":{"_type":"slug","current":"community-action-main-office"},"featured":false,"physicalAddress":{"_type":"object","address1":"701 NW 1st Court","address2":"","city":"Miami","state":"FL","zip":"33136"},"mduid":"loc1480368540991643","publicHours":{"_type":"object","monday":{"isOpen":false},"tuesday":{"isOpen":false},"wednesday":{"isOpen":false},"thursday":{"isOpen":false},"friday":{"isOpen":false},"saturday":{"isOpen":false},"sunday":{"isOpen":false},"notes":""},"geo":{"_type":"object","x":920522.601,"y":527010.871}}
{"_type":"location","_id":"loc1467810694250749","name":"Consumer Protection","locationDisplayName":"","slug":{"_type":"slug","current":"consumer-protection"},"featured":false,"physicalAddress":{"_type":"object","address1":"601 NW 1st Court","address2":"18th Floor","city":"Miami","state":"FL","zip":"33136"},"mduid":"loc1467810694250749","publicHours":{"_type":"object","monday":{"isOpen":false},"tuesday":{"isOpen":false},"wednesday":{"isOpen":false},"thursday":{"isOpen":false},"friday":{"isOpen":false},"saturday":{"isOpen":false},"sunday":{"isOpen":false},"notes":""},"geo":{"_type":"object","x":920548.968,"y":526626.017}}
{"_type":"location","_id":"loc1506354232215863","name":"Coordinated Victims Assistance Center","locationDisplayName":"","slug":{"_type":"slug","current":"coordinated-victims-assistance-center"},"featured":false,"physicalAddress":{"_type":"object","address1":"2400 South Dixie Highway","address2":"","city":"Miami","state":"FL","zip":"33133"},"mduid":"loc1506354232215863","publicHours":{"_type":"object","monday":{"isOpen":false},"tuesday":{"isOpen":false},"wednesday":{"isOpen":false},"thursday":{"isOpen":false},"friday":{"isOpen":false},"saturday":{"isOpen":false},"sunday":{"isOpen":false},"notes":""},"geo":{"_type":"object","x":908165.724,"y":512246.983}}
{"_type":"location","_id":"loc152148619858056","name":"Country Club of Miami","locationDisplayName":"Country Club of Miami","slug":{"_type":"slug","current":"country-club-of-miami"},"featured":false,"physicalAddress":{"_type":"object","address1":"6801 NW 186th Street","address2":"","city":"Hialeah","state":"FL","zip":"33015"},"mduid":"loc152148619858056","publicHours":{"_type":"object","monday":{"isOpen":false},"tuesday":{"isOpen":false},"wednesday":{"isOpen":false},"thursday":{"isOpen":false},"friday":{"isOpen":false},"saturday":{"isOpen":false},"sunday":{"isOpen":false},"notes":"Tee time starts at 7:00 a.m. Last tee time is 5:00 p.m.\nDuring Daylight Saving Time, closing time is 7:30 p.m.\nOutside of Daylight Saving Time, closing time is 4:30 p.m."},"geo":{"_type":"object","x":881758.311,"y":585823.435}}
{"_type":"location","_id":"loc150410016294752","name":"County Store","locationDisplayName":"","slug":{"_type":"slug","current":"county-store"},"featured":false,"physicalAddress":{"_type":"object","address1":"980 W 84th Street","address2":"","city":"Hialeah","state":"FL","zip":"33014"},"mduid":"loc150410016294752","publicHours":{"_type":"object","monday":{"isOpen":false},"tuesday":{"isOpen":false},"wednesday":{"isOpen":false},"thursday":{"isOpen":false},"friday":{"isOpen":false},"saturday":{"isOpen":false},"sunday":{"isOpen":false},"notes":"Closed on County holidays"},"geo":{"_type":"object","x":885077.374,"y":569341.372}}
{"_type":"location","_id":"loc1506353055898116","name":"Courthouse Center Garage","locationDisplayName":"","slug":{"_type":"slug","current":"courthouse-center-garage"},"featured":false,"physicalAddress":{"_type":"object","address1":"175 NW 1st Avenue","address2":"","city":"Miami","state":"FL","zip":"33128"},"mduid":"loc1506353055898116","publicHours":{"_type":"object","monday":{"isOpen":false},"tuesday":{"isOpen":false},"wednesday":{"isOpen":false},"thursday":{"isOpen":false},"friday":{"isOpen":false},"saturday":{"isOpen":false},"sunday":{"isOpen":false},"notes":"Closed Saturday and Sunday; County Holidays"},"geo":{"_type":"object","x":921158.687,"y":525009.935}}
{"_type":"location","_id":"loc1469480776265544","name":"Courthouse East","locationDisplayName":"","slug":{"_type":"slug","current":"courthouse-east"},"featured":false,"physicalAddress":{"_type":"object","address1":"22 NW First Street","address2":"","city":"Miami","state":"FL","zip":"33128"},"mduid":"loc1469480776265544","publicHours":{"_type":"object","monday":{"isOpen":false},"tuesday":{"isOpen":false},"wednesday":{"isOpen":false},"thursday":{"isOpen":false},"friday":{"isOpen":false},"saturday":{"isOpen":false},"sunday":{"isOpen":false},"notes":""},"geo":{"_type":"object","x":921349.435,"y":524664.187}}
{"_type":"location","_id":"loc1521488052324842","name":"Crandon Golf Course","locationDisplayName":"Crandon Golf Course","slug":{"_type":"slug","current":"crandon-golf-course"},"featured":false,"physicalAddress":{"_type":"object","address1":"6700 Crandon Boulevard","address2":"","city":"Key Biscayne","state":"FL","zip":"33149"},"mduid":"loc1521488052324842","publicHours":{"_type":"object","monday":{"isOpen":false},"tuesday":{"isOpen":false},"wednesday":{"isOpen":false},"thursday":{"isOpen":false},"friday":{"isOpen":false},"saturday":{"isOpen":false},"sunday":{"isOpen":false},"notes":""},"geo":{"_type":"object","x":934242.363,"y":503410.845}}
{"_type":"location","_id":"loc1523995449637272","name":"Crandon Park","locationDisplayName":"Crandon Park","slug":{"_type":"slug","current":"crandon-park"},"featured":false,"physicalAddress":{"_type":"object","address1":"6747 Crandon Boulevard","address2":"","city":"Key Biscayne","state":"FL","zip":"33149"},"mduid":"loc1523995449637272","publicHours":{"_type":"object","monday":{"isOpen":false},"tuesday":{"isOpen":false},"wednesday":{"isOpen":false},"thursday":{"isOpen":false},"friday":{"isOpen":false},"saturday":{"isOpen":false},"sunday":{"isOpen":false},"notes":"Office Hours: 8:00 a.m. - 5:00 p.m., Monday through Sunday."},"geo":{"_type":"object","x":935097.941,"y":503366.865}}
{"_type":"location","_id":"loc1539974257538182","name":"Crandon Park Nature Center","locationDisplayName":"Crandon Park Nature Center","slug":{"_type":"slug","current":"crandon-park-nature-center"},"featured":false,"physicalAddress":{"_type":"object","address1":"6747 Crandon Boulevard","address2":"","city":"Key Biscayne","state":"FL","zip":"33149"},"mduid":"loc1539974257538182","publicHours":{"_type":"object","monday":{"isOpen":false},"tuesday":{"isOpen":false},"wednesday":{"isOpen":false},"thursday":{"isOpen":false},"friday":{"isOpen":false},"saturday":{"isOpen":false},"sunday":{"isOpen":false},"notes":""},"geo":{"_type":"object"}}
{"_type":"location","_id":"loc1503689471415374","name":"Culmer Community Resource Center","locationDisplayName":"","slug":{"_type":"slug","current":"culmer-community-resource-center"},"featured":false,"physicalAddress":{"_type":"object","address1":"1600 NW 3rd Avenue","address2":"","city":"Miami","state":"FL","zip":"33136"},"mduid":"loc1503689471415374","publicHours":{"_type":"object","monday":{"isOpen":false},"tuesday":{"isOpen":false},"wednesday":{"isOpen":false},"thursday":{"isOpen":false},"friday":{"isOpen":false},"saturday":{"isOpen":false},"sunday":{"isOpen":false},"notes":""},"geo":{"_type":"object","x":919112.9471281271,"y":530422.0069950222}}
{"_type":"location","_id":"loc1496869850410580","name":"Town of Cutler Bay Police Station","locationDisplayName":"","slug":{"_type":"slug","current":"cutler-bay-police-station"},"featured":false,"physicalAddress":{"_type":"object","address1":"10720 Caribbean Boulevard","address2":"#200","city":"Cutler Bay","state":"FL","zip":"33189"},"mduid":"loc1496869850410580","publicHours":{"_type":"object","monday":{"isOpen":false},"tuesday":{"isOpen":false},"wednesday":{"isOpen":false},"thursday":{"isOpen":false},"friday":{"isOpen":false},"saturday":{"isOpen":false},"sunday":{"isOpen":false},"notes":""},"geo":{"_type":"object"}}
{"_type":"location","_id":"loc1666710842949336","name":"Deering Estate","locationDisplayName":"Deering Estate","slug":{"_type":"slug","current":"deering-estate"},"featured":false,"physicalAddress":{"_type":"object","address1":"16701 SW 72 Avenue","address2":"","city":"Miami","state":"FL","zip":"33157"},"mduid":"loc1666710842949336","publicHours":{"_type":"object","monday":{"isOpen":false},"tuesday":{"isOpen":false},"wednesday":{"isOpen":false},"thursday":{"isOpen":false},"friday":{"isOpen":false},"saturday":{"isOpen":false},"sunday":{"isOpen":false},"notes":""},"geo":{"_type":"object","x":884614.5318912746,"y":466604.68623448565}}
{"_type":"location","_id":"loc1631908408415695","name":"District 1 Main Office","locationDisplayName":"Main Office","slug":{"_type":"slug","current":"district-01-office"},"featured":false,"physicalAddress":{"_type":"object","address1":"17988 NW 27th Avenue","address2":"","city":"Miami Gardens","state":"FL","zip":"33056"},"mduid":"loc1631908408415695","publicHours":{"_type":"object","monday":{"isOpen":false},"tuesday":{"isOpen":false},"wednesday":{"isOpen":false},"thursday":{"isOpen":false},"friday":{"isOpen":false},"saturday":{"isOpen":false},"sunday":{"isOpen":false},"notes":""},"geo":{"_type":"object","x":903008.583512787,"y":583931.1158857828}}
{"_type":"location","_id":"loc1541603934184365","name":"District 2 Main Office","locationDisplayName":"District 2 Main Office","slug":{"_type":"slug","current":"district-02-office"},"featured":false,"physicalAddress":{"_type":"object","address1":"915 N.E. 125th Street, Suite 2A","address2":"","city":"Miami","state":"FL","zip":"33161"},"mduid":"loc1541603934184365","publicHours":{"_type":"object","monday":{"isOpen":false},"tuesday":{"isOpen":false},"wednesday":{"isOpen":false},"thursday":{"isOpen":false},"friday":{"isOpen":false},"saturday":{"isOpen":false},"sunday":{"isOpen":false},"notes":""},"geo":{"_type":"object","x":925790.543,"y":566670.044}}
{"_type":"location","_id":"loc1541604773743965","name":"District 3 Main Office","locationDisplayName":"District 3 Main Office","slug":{"_type":"slug","current":"district-03-office"},"featured":false,"physicalAddress":{"_type":"object","address1":"5400 NW 22nd Ave., Suite 701","address2":"","city":"Miami","state":"FL","zip":"33142"},"mduid":"loc1541604773743965","publicHours":{"_type":"object","monday":{"isOpen":false},"tuesday":{"isOpen":false},"wednesday":{"isOpen":false},"thursday":{"isOpen":false},"friday":{"isOpen":false},"saturday":{"isOpen":false},"sunday":{"isOpen":false},"notes":""},"geo":{"_type":"object"}}
{"_type":"location","_id":"loc1669133584755441","name":"District 4 Satellite Office","locationDisplayName":"Aventura City Hall","slug":{"_type":"slug","current":"district-04-aventura-satellite-office"},"featured":false,"physicalAddress":{"_type":"object","address1":"19200 W. Country Club Drive","address2":"Suite 417","city":"Aventura","state":"FL","zip":"33180"},"mduid":"loc1669133584755441","publicHours":{"_type":"object","monday":{"isOpen":false},"tuesday":{"isOpen":false},"wednesday":{"isOpen":false},"thursday":{"isOpen":false},"friday":{"isOpen":false},"saturday":{"isOpen":false},"sunday":{"isOpen":false},"notes":""},"geo":{"_type":"object","x":939031.6799552494,"y":589504.8496913139}}
{"_type":"location","_id":"loc168988222201883","name":"District 04 Office","locationDisplayName":"District 04 Office","slug":{"_type":"slug","current":"district-04-office"},"featured":false,"physicalAddress":{"_type":"object","address1":"2124 NE 123rd Street","address2":"Suite 201","city":"North Miami","state":"FL","zip":"33181"},"mduid":"loc168988222201883","publicHours":{"_type":"object","monday":{"isOpen":false},"tuesday":{"isOpen":false},"wednesday":{"isOpen":false},"thursday":{"isOpen":false},"friday":{"isOpen":false},"saturday":{"isOpen":false},"sunday":{"isOpen":false},"notes":""},"geo":{"_type":"object","x":933888.7778045335,"y":566395.121745592}}
{"_type":"location","_id":"loc1477066246562696","name":"District 5 Main Office","locationDisplayName":"","slug":{"_type":"slug","current":"district-05-main-office"},"featured":false,"physicalAddress":{"_type":"object","address1":"2100 Coral Way, Suite 400","address2":"","city":"Miami","state":"FL","zip":"33145"},"mduid":"loc1477066246562696","publicHours":{"_type":"object","monday":{"isOpen":false},"tuesday":{"isOpen":false},"wednesday":{"isOpen":false},"thursday":{"isOpen":false},"friday":{"isOpen":false},"saturday":{"isOpen":false},"sunday":{"isOpen":false},"notes":""},"geo":{"_type":"object","x":913119.972,"y":523645.423}}
{"_type":"location","_id":"loc1541436820626395","name":"District 5 Miami Beach Office","locationDisplayName":"Miami Beach Office","slug":{"_type":"slug","current":"district-05-miami-beach"},"featured":false,"physicalAddress":{"_type":"object","address1":"1700 Convention Center Drive, 1st Floor","address2":"","city":"Miami Beach","state":"FL","zip":"33139"},"mduid":"loc1541436820626395","publicHours":{"_type":"object","monday":{"isOpen":false},"tuesday":{"isOpen":false},"wednesday":{"isOpen":false},"thursday":{"isOpen":false},"friday":{"isOpen":false},"saturday":{"isOpen":false},"sunday":{"isOpen":false},"notes":""},"geo":{"_type":"object","x":940617.16,"y":531318.399}}
{"_type":"location","_id":"loc154160403533175","name":"Main Office","locationDisplayName":"Main Office","slug":{"_type":"slug","current":"district-06-office"},"featured":false,"physicalAddress":{"_type":"object","address1":"1000 SW 57th Avenue","address2":"","city":"Miami","state":"FL","zip":"33144"},"mduid":"loc154160403533175","publicHours":{"_type":"object","monday":{"isOpen":false},"tuesday":{"isOpen":false},"wednesday":{"isOpen":false},"thursday":{"isOpen":false},"friday":{"isOpen":false},"saturday":{"isOpen":false},"sunday":{"isOpen":false},"notes":""},"geo":{"_type":"object","x":890458.7756209295,"y":519452.6424033299}}
{"_type":"location","_id":"loc1705527910557475","name":"District 7 Office","locationDisplayName":"District 7 Office","slug":{"_type":"slug","current":"district-07-office"},"featured":false,"physicalAddress":{"_type":"object","address1":"3750 S. Dixie Hwy","address2":"","city":"Miami","state":"FL","zip":"33133"},"mduid":"loc1705527910557475","publicHours":{"_type":"object","monday":{"isOpen":false},"tuesday":{"isOpen":false},"wednesday":{"isOpen":false},"thursday":{"isOpen":false},"friday":{"isOpen":false},"saturday":{"isOpen":false},"sunday":{"isOpen":false},"notes":""},"geo":{"_type":"object","x":901639.521738483,"y":508758.54875000153}}
{"_type":"location","_id":"loc1541604924249404","name":"District 7 South Miami Office","locationDisplayName":"District 7 South Miami Office","slug":{"_type":"slug","current":"district-07-south-miami"},"featured":false,"physicalAddress":{"_type":"object","address1":"6130 Sunset Drive","address2":"","city":"South Miami","state":"FL","zip":"33143"},"mduid":"loc1541604924249404","publicHours":{"_type":"object","monday":{"isOpen":false},"tuesday":{"isOpen":false},"wednesday":{"isOpen":false},"thursday":{"isOpen":false},"friday":{"isOpen":false},"saturday":{"isOpen":false},"sunday":{"isOpen":false},"notes":""},"geo":{"_type":"object"}}
{"_type":"location","_id":"loc1541605082322163","name":"District 9 North District","locationDisplayName":"District 9 North District","slug":{"_type":"slug","current":"district-09-north-district"},"featured":false,"physicalAddress":{"_type":"object","address1":"10710 SW 211th Street, Suite 206","address2":"","city":"Miami","state":"FL","zip":"33189"},"mduid":"loc1541605082322163","publicHours":{"_type":"object","monday":{"isOpen":false},"tuesday":{"isOpen":false},"wednesday":{"isOpen":false},"thursday":{"isOpen":false},"friday":{"isOpen":false},"saturday":{"isOpen":false},"sunday":{"isOpen":false},"notes":""},"geo":{"_type":"object"}}
{"_type":"location","_id":"loc1541605164958995","name":"District 9 South District","locationDisplayName":"","slug":{"_type":"slug","current":"district-09-south-district"},"featured":false,"physicalAddress":{"_type":"object","address1":"1634 NW 6th Avenue","address2":"","city":"Florida City","state":"FL","zip":"33034"},"mduid":"loc1541605164958995","publicHours":{"_type":"object","monday":{"isOpen":false},"tuesday":{"isOpen":false},"wednesday":{"isOpen":false},"thursday":{"isOpen":false},"friday":{"isOpen":false},"saturday":{"isOpen":false},"sunday":{"isOpen":false},"notes":""},"geo":{"_type":"object"}}
{"_type":"location","_id":"loc1705956874734856","name":"District 10 Office","locationDisplayName":"","slug":{"_type":"slug","current":"district-10-office"},"featured":false,"physicalAddress":{"_type":"object","address1":"7146 SW 117th Avenue","address2":"","city":"Miami","state":"FL","zip":"33183"},"mduid":"loc1705956874734856","publicHours":{"_type":"object","monday":{"isOpen":false},"tuesday":{"isOpen":false},"wednesday":{"isOpen":false},"thursday":{"isOpen":false},"friday":{"isOpen":false},"saturday":{"isOpen":false},"sunday":{"isOpen":false},"notes":""},"geo":{"_type":"object","x":859573.6934802219,"y":497671.4445381483}}
{"_type":"location","_id":"loc1541605276694507","name":"District 11 Office","locationDisplayName":"District 11 Office","slug":{"_type":"slug","current":"district-11-office"},"featured":false,"physicalAddress":{"_type":"object","address1":"12781 SW 42nd Street","address2":"","city":"Miami","state":"FL","zip":"33175"},"mduid":"loc1541605276694507","publicHours":{"_type":"object","monday":{"isOpen":false},"tuesday":{"isOpen":false},"wednesday":{"isOpen":false},"thursday":{"isOpen":false},"friday":{"isOpen":false},"saturday":{"isOpen":false},"sunday":{"isOpen":false},"notes":""},"geo":{"_type":"object","x":853252.1171232936,"y":508031.22464342334}}
{"_type":"location","_id":"loc1541605332163850","name":"District 12 Main Office","locationDisplayName":"District 12 Main Office","slug":{"_type":"slug","current":"district-12-office"},"featured":false,"physicalAddress":{"_type":"object","address1":"8333 NW 53 Street","address2":"Suite 102","city":"Doral","state":"FL","zip":"33166"},"mduid":"loc1541605332163850","publicHours":{"_type":"object","monday":{"isOpen":false},"tuesday":{"isOpen":false},"wednesday":{"isOpen":false},"thursday":{"isOpen":false},"friday":{"isOpen":false},"saturday":{"isOpen":false},"sunday":{"isOpen":false},"notes":""},"geo":{"_type":"object","x":875810.6357072719,"y":541643.2623935955}}
{"_type":"location","_id":"loc1541605394552534","name":"District 13 Main Office","locationDisplayName":"District 13 Main Office","slug":{"_type":"slug","current":"district-13-office"},"featured":false,"physicalAddress":{"_type":"object","address1":"1490 West 68th Street, Suite 101","address2":"","city":"Hialeah","state":"FL","zip":"33014"},"mduid":"loc1541605394552534","publicHours":{"_type":"object","monday":{"isOpen":false},"tuesday":{"isOpen":false},"wednesday":{"isOpen":false},"thursday":{"isOpen":false},"friday":{"isOpen":false},"saturday":{"isOpen":false},"sunday":{"isOpen":false},"notes":""},"geo":{"_type":"object"}}
{"_type":"location","_id":"loc1539117161932583","name":"District 1 Office","locationDisplayName":"","slug":{"_type":"slug","current":"district1-office"},"featured":false,"physicalAddress":{"_type":"object","address1":"2780 N.W. 167th Street","address2":"","city":"Miami Gardens","state":"FL","zip":"33054"},"mduid":"loc1539117161932583","publicHours":{"_type":"object","monday":{"isOpen":false},"tuesday":{"isOpen":false},"wednesday":{"isOpen":false},"thursday":{"isOpen":false},"friday":{"isOpen":false},"saturday":{"isOpen":false},"sunday":{"isOpen":false},"notes":""},"geo":{"_type":"object","x":904234.603,"y":579352.175}}
{"_type":"location","_id":"loc1605587127888901","name":"District 1 Temporary Office","locationDisplayName":"Temporary Office","slug":{"_type":"slug","current":"district1-temporary-office"},"featured":false,"physicalAddress":{"_type":"object","address1":"16405 NW 25th Avenue","address2":"","city":"Miami Gardens","state":"FL","zip":"33054"},"mduid":"loc1605587127888901","publicHours":{"_type":"object","monday":{"isOpen":false},"tuesday":{"isOpen":false},"wednesday":{"isOpen":false},"thursday":{"isOpen":false},"friday":{"isOpen":false},"saturday":{"isOpen":false},"sunday":{"isOpen":false},"notes":""},"geo":{"_type":"object","x":905678.804,"y":578800.433}}
{"_type":"location","_id":"loc1462483344163784","name":"Dr. Martin Luther King Office Plaza","locationDisplayName":"","slug":{"_type":"slug","current":"dr-martin-luther-king-office-plaza"},"featured":false,"physicalAddress":{"_type":"object","address1":"2525 NW 62nd Street","address2":"","city":"Miami","state":"FL","zip":"33147"},"mduid":"loc1462483344163784","publicHours":{"_type":"object","monday":{"isOpen":false},"tuesday":{"isOpen":false},"wednesday":{"isOpen":false},"thursday":{"isOpen":false},"friday":{"isOpen":false},"saturday":{"isOpen":false},"sunday":{"isOpen":false},"notes":""},"geo":{"_type":"object","x":906225.7026899093,"y":545230.3660031339}}
{"_type":"location","_id":"loc1471449028872931","name":"Earlington Heights Parking Garage","locationDisplayName":"Earlington Heights Metrorail Parking Garage","slug":{"_type":"slug","current":"earlington-heights-parking-garage"},"featured":false,"physicalAddress":{"_type":"object","address1":"2100 NW 41st Street","address2":"","city":"Miami","state":"FL","zip":"33142"},"mduid":"loc1471449028872931","publicHours":{"_type":"object","monday":{"isOpen":false},"tuesday":{"isOpen":false},"wednesday":{"isOpen":false},"thursday":{"isOpen":false},"friday":{"isOpen":false},"saturday":{"isOpen":false},"sunday":{"isOpen":false},"notes":"Garage open 24 hours seven days a week."},"geo":{"_type":"object","x":909028.095,"y":538421.34}}
{"_type":"location","_id":"loc1503689930831304","name":"Edison Community Resource Center","locationDisplayName":"","slug":{"_type":"slug","current":"edison-community-resource-center"},"featured":false,"physicalAddress":{"_type":"object","address1":"150 NW 79th Street","address2":"","city":"Miami","state":"FL","zip":"33150"},"mduid":"loc1503689930831304","publicHours":{"_type":"object","monday":{"isOpen":false},"tuesday":{"isOpen":false},"wednesday":{"isOpen":false},"thursday":{"isOpen":false},"friday":{"isOpen":false},"saturday":{"isOpen":false},"sunday":{"isOpen":false},"notes":""},"geo":{"_type":"object","x":919284.848988178,"y":550852.5539297888}}
{"_type":"location","_id":"loc146248361574673","name":"Elections Central","locationDisplayName":"","slug":{"_type":"slug","current":"elections-central"},"featured":false,"physicalAddress":{"_type":"object","address1":"2700 NW 87th Ave","address2":"","city":"Doral","state":"FL","zip":"33172"},"mduid":"loc146248361574673","publicHours":{"_type":"object","monday":{"isOpen":false},"tuesday":{"isOpen":false},"wednesday":{"isOpen":false},"thursday":{"isOpen":false},"friday":{"isOpen":false},"saturday":{"isOpen":false},"sunday":{"isOpen":false},"notes":""},"geo":{"_type":"object","x":873739.374,"y":533636.622}}
{"_type":"location","_id":"loc1521570622616757","name":"Miami-Dade Supervisor of Elections","locationDisplayName":"Miami-Dade Supervisor of Elections","slug":{"_type":"slug","current":"elections-department"},"featured":false,"physicalAddress":{"_type":"object","address1":"2700 NW 87 Avenue","address2":"","city":"Miami","state":"FL","zip":"33172"},"mduid":"loc1521570622616757","publicHours":{"_type":"object","monday":{"isOpen":false},"tuesday":{"isOpen":false},"wednesday":{"isOpen":false},"thursday":{"isOpen":false},"friday":{"isOpen":false},"saturday":{"isOpen":false},"sunday":{"isOpen":false},"notes":""},"geo":{"_type":"object","x":873739.8990880862,"y":533637.9067790599}}
{"_type":"location","_id":"loc1462483842832328","name":"Emergency Operations Center","locationDisplayName":"","slug":{"_type":"slug","current":"emergency-operations-center"},"featured":false,"physicalAddress":{"_type":"object","address1":"9300 NW 41st Street","address2":"","city":"Doral","state":"FL","zip":"33178"},"mduid":"loc1462483842832328","publicHours":{"_type":"object","monday":{"isOpen":false},"tuesday":{"isOpen":false},"wednesday":{"isOpen":false},"thursday":{"isOpen":false},"friday":{"isOpen":false},"saturday":{"isOpen":false},"sunday":{"isOpen":false},"notes":""},"geo":{"_type":"object","x":870342.764,"y":537183.892}}
{"_type":"location","_id":"loc1464790814942582","name":"Environmental Health and Engineering","locationDisplayName":"","slug":{"_type":"slug","current":"environmental-health-and-engineering"},"featured":false,"physicalAddress":{"_type":"object","address1":"1725 NW 167th Street","address2":"","city":"Miami","state":"FL","zip":"33056"},"mduid":"loc1464790814942582","publicHours":{"_type":"object","monday":{"isOpen":false},"tuesday":{"isOpen":false},"wednesday":{"isOpen":false},"thursday":{"isOpen":false},"friday":{"isOpen":false},"saturday":{"isOpen":false},"sunday":{"isOpen":false},"notes":""},"geo":{"_type":"object","x":909455.151,"y":580135.481}}
{"_type":"location","_id":"loc1464727575652894","name":"Eureka Drive Trash and Recycling Center","locationDisplayName":"","slug":{"_type":"slug","current":"eureka-drive-trash-and-recycling-center"},"featured":false,"physicalAddress":{"_type":"object","address1":"9401 SW 184 Street","address2":"","city":"Palmetto Bay","state":"FL","zip":"33157"},"mduid":"loc1464727575652894","publicHours":{"_type":"object","monday":{"isOpen":false},"tuesday":{"isOpen":false},"wednesday":{"isOpen":false},"thursday":{"isOpen":false},"friday":{"isOpen":false},"saturday":{"isOpen":false},"sunday":{"isOpen":false},"notes":""},"geo":{"_type":"object","x":872101.291,"y":460586.7}}
{"_type":"location","_id":"loc1545667832406171","name":"F.H. Russell Independent Living Center","locationDisplayName":"","slug":{"_type":"slug","current":"fh-russell-independent-living-center"},"featured":false,"physicalAddress":{"_type":"object","address1":"1335 NW 14th Street","address2":"","city":"Miami","state":"FL","zip":"33127"},"mduid":"loc1545667832406171","publicHours":{"_type":"object","monday":{"isOpen":false},"tuesday":{"isOpen":false},"wednesday":{"isOpen":false},"thursday":{"isOpen":false},"friday":{"isOpen":false},"saturday":{"isOpen":false},"sunday":{"isOpen":false},"notes":""},"geo":{"_type":"object","x":913649.724,"y":529379.494}}
{"_type":"location","_id":"loc1496937746629676","name":"Fire Rescue Headquarters","locationDisplayName":"Miami-Dade Fire Rescue Headquarters","slug":{"_type":"slug","current":"fire-rescue-headquarters"},"featured":false,"physicalAddress":{"_type":"object","address1":"9300 NW 41st Street","address2":"","city":"Doral","state":"FL","zip":"33178"},"mduid":"loc1496937746629676","publicHours":{"_type":"object","monday":{"isOpen":false},"tuesday":{"isOpen":false},"wednesday":{"isOpen":false},"thursday":{"isOpen":false},"friday":{"isOpen":false},"saturday":{"isOpen":false},"sunday":{"isOpen":false},"notes":""},"geo":{"_type":"object","x":870342.764,"y":537183.892}}
{"_type":"location","_id":"loc1503689577018576","name":"Florida City/Homestead Community Resource Center","locationDisplayName":"","slug":{"_type":"slug","current":"florida-city-homestead-community-resource-center"},"featured":false,"physicalAddress":{"_type":"object","address1":"1600 NW 6th Court","address2":"","city":"Florida City","state":"FL","zip":"33034"},"mduid":"loc1503689577018576","publicHours":{"_type":"object","monday":{"isOpen":false},"tuesday":{"isOpen":false},"wednesday":{"isOpen":false},"thursday":{"isOpen":false},"friday":{"isOpen":false},"saturday":{"isOpen":false},"sunday":{"isOpen":false},"notes":""},"geo":{"_type":"object","x":825687.2772169884,"y":410368.94826428697}}
{"_type":"location","_id":"loc1617221699127563","name":"For-Hire Licensing and Enforcement","locationDisplayName":"For-Hire Licensing and Enforcement","slug":{"_type":"slug","current":"for-hire-licensing-enforcement"},"featured":false,"physicalAddress":{"_type":"object","address1":"601 NW 1st Court","address2":"18th floor","city":"Miami","state":"FL","zip":"33136"},"mduid":"loc1617221699127563","publicHours":{"_type":"object","monday":{"isOpen":false},"tuesday":{"isOpen":false},"wednesday":{"isOpen":false},"thursday":{"isOpen":false},"friday":{"isOpen":false},"saturday":{"isOpen":false},"sunday":{"isOpen":false},"notes":"Walk-ins:  8 a.m. – 1 p.m., Appointments:  1 p.m. – 4:30 p.m."},"geo":{"_type":"object","x":920548.967,"y":526626.017}}
{"_type":"location","_id":"loc1620311815763542","name":"Frankie Shannon Rolle Community Resource Center","locationDisplayName":"","slug":{"_type":"slug","current":"frankie-shannon-rolle-community-resource-center"},"featured":false,"physicalAddress":{"_type":"object","address1":"3750 S. Dixie Highway","address2":"Suite 117","city":"Miami","state":"FL","zip":"33133"},"mduid":"loc1620311815763542","publicHours":{"_type":"object","monday":{"isOpen":false},"tuesday":{"isOpen":false},"wednesday":{"isOpen":false},"thursday":{"isOpen":false},"friday":{"isOpen":false},"saturday":{"isOpen":false},"sunday":{"isOpen":false},"notes":""},"geo":{"_type":"object","x":901639.521738483,"y":508758.54875000153}}
{"_type":"location","_id":"loc1462485047281903","name":"Miami-Dade Sheriff's Office - Fred Taylor Headquarters","locationDisplayName":"","slug":{"_type":"slug","current":"fred-taylor-miami-dade-police-headquarters"},"featured":false,"physicalAddress":{"_type":"object","address1":"9105 NW 25th Street","address2":"","city":"Doral","state":"FL","zip":"33172"},"mduid":"loc1462485047281903","publicHours":{"_type":"object","monday":{"isOpen":false},"tuesday":{"isOpen":false},"wednesday":{"isOpen":false},"thursday":{"isOpen":false},"friday":{"isOpen":false},"saturday":{"isOpen":false},"sunday":{"isOpen":false},"notes":""},"geo":{"_type":"object","x":872043.4570965541,"y":532975.1728884637}}
{"_type":"location","_id":"loc1464725979797942","name":"Golden Glades Trash and Recycling Center","locationDisplayName":"","slug":{"_type":"slug","current":"golden-glades-trash-and-recycling-center"},"featured":false,"physicalAddress":{"_type":"object","address1":"140 NW 160 Street","address2":"","city":"Miami","state":"FL","zip":"33169"},"mduid":"loc1464725979797942","publicHours":{"_type":"object","monday":{"isOpen":false},"tuesday":{"isOpen":false},"wednesday":{"isOpen":false},"thursday":{"isOpen":false},"friday":{"isOpen":false},"saturday":{"isOpen":false},"sunday":{"isOpen":false},"notes":""},"geo":{"_type":"object","x":918180.888,"y":577969.664}}
{"_type":"location","_id":"loc1506353991116984","name":"Graham Building Lot","locationDisplayName":"","slug":{"_type":"slug","current":"graham-building-lot"},"featured":false,"physicalAddress":{"_type":"object","address1":"1350 NW 13th Avenue","address2":"","city":"Miami","state":"FL","zip":"33136"},"mduid":"loc1506353991116984","publicHours":{"_type":"object","monday":{"isOpen":false},"tuesday":{"isOpen":false},"wednesday":{"isOpen":false},"thursday":{"isOpen":false},"friday":{"isOpen":false},"saturday":{"isOpen":false},"sunday":{"isOpen":false},"notes":""},"geo":{"_type":"object","x":914051.182,"y":529041.022}}
{"_type":"location","_id":"loc1498148525709601","name":"Greater Miami Service Corps North","locationDisplayName":"Greater Miami Service Corps North","slug":{"_type":"slug","current":"greater-miami-service-corps-north"},"featured":false,"physicalAddress":{"_type":"object","address1":"810 NW 28th Street","address2":"","city":"Miami","state":"FL","zip":"33127"},"mduid":"loc1498148525709601","publicHours":{"_type":"object","monday":{"isOpen":false},"tuesday":{"isOpen":false},"wednesday":{"isOpen":false},"thursday":{"isOpen":false},"friday":{"isOpen":false},"saturday":{"isOpen":false},"sunday":{"isOpen":false},"notes":""},"geo":{"_type":"object","x":916008.248,"y":534558.423}}
{"_type":"location","_id":"loc1498148614293642","name":"Greater Miami Service Corps South","locationDisplayName":"Greater Miami Service Corps South","slug":{"_type":"slug","current":"greater-miami-service-corps-south"},"featured":false,"physicalAddress":{"_type":"object","address1":"15355 Harding Lane","address2":"","city":"Leisure City","state":"FL","zip":"33033"},"mduid":"loc1498148614293642","publicHours":{"_type":"object","monday":{"isOpen":false},"tuesday":{"isOpen":false},"wednesday":{"isOpen":false},"thursday":{"isOpen":false},"friday":{"isOpen":false},"saturday":{"isOpen":false},"sunday":{"isOpen":false},"notes":""},"geo":{"_type":"object","x":840925.071,"y":422600.676}}
{"_type":"location","_id":"loc1521489850113531","name":"Greynolds Golf Course","locationDisplayName":"Greynolds Golf Course","slug":{"_type":"slug","current":"greynolds-golf-course"},"featured":false,"physicalAddress":{"_type":"object","address1":"17530 West Dixie Highway","address2":"","city":"North Miami Beach","state":"FL","zip":"33160"},"mduid":"loc1521489850113531","publicHours":{"_type":"object","monday":{"isOpen":false},"tuesday":{"isOpen":false},"wednesday":{"isOpen":false},"thursday":{"isOpen":false},"friday":{"isOpen":false},"saturday":{"isOpen":false},"sunday":{"isOpen":false},"notes":""},"geo":{"_type":"object","x":935173.545,"y":583848.855}}
{"_type":"location","_id":"loc152399563270668","name":"Greynolds Park","locationDisplayName":"","slug":{"_type":"slug","current":"greynolds-park"},"featured":false,"physicalAddress":{"_type":"object","address1":"17530 W Dixie Hwy","address2":"","city":"North Miami Beach","state":"FL","zip":"33160"},"mduid":"loc152399563270668","publicHours":{"_type":"object","monday":{"isOpen":false},"tuesday":{"isOpen":false},"wednesday":{"isOpen":false},"thursday":{"isOpen":false},"friday":{"isOpen":false},"saturday":{"isOpen":false},"sunday":{"isOpen":false},"notes":"Office Hours: 8:30 a.m. through 4:30 p.m. Monday-Sunday"},"geo":{"_type":"object","x":935173.545,"y":583848.855}}
{"_type":"location","_id":"loc1539974250958446","name":"Greynolds Park Boathouse","locationDisplayName":"Greynolds Park Boathouse","slug":{"_type":"slug","current":"greynolds-park-boathouse"},"featured":false,"physicalAddress":{"_type":"object","address1":"17530 W Dixie Hwy","address2":"","city":"North Miami Beach","state":"FL","zip":"33160"},"mduid":"loc1539974250958446","publicHours":{"_type":"object","monday":{"isOpen":false},"tuesday":{"isOpen":false},"wednesday":{"isOpen":false},"thursday":{"isOpen":false},"friday":{"isOpen":false},"saturday":{"isOpen":false},"sunday":{"isOpen":false},"notes":"Closed Saturdays and Sundays."},"geo":{"_type":"object"}}
{"_type":"location","_id":"loc1480370390856254","name":"Haitian American Senior Center","locationDisplayName":"Haitian American Senior Center","slug":{"_type":"slug","current":"haitian-american-senior-center"},"featured":false,"physicalAddress":{"_type":"object","address1":"100 NW 83rd Street","address2":"(West Entrance)","city":"Miami","state":"FL","zip":"33150"},"mduid":"loc1480370390856254","publicHours":{"_type":"object","monday":{"isOpen":false},"tuesday":{"isOpen":false},"wednesday":{"isOpen":false},"thursday":{"isOpen":false},"friday":{"isOpen":false},"saturday":{"isOpen":false},"sunday":{"isOpen":false},"notes":""},"geo":{"_type":"object","x":923403.874,"y":542037.249}}
{"_type":"location","_id":"loc1496163727208331","name":"Hammocks District Police Station","locationDisplayName":"","slug":{"_type":"slug","current":"hammocks-district-police-station"},"featured":false,"physicalAddress":{"_type":"object","address1":"10000 SW 142nd Avenue","address2":"","city":"Miami","state":"FL","zip":"33186-7317"},"mduid":"loc1496163727208331","publicHours":{"_type":"object","monday":{"isOpen":false},"tuesday":{"isOpen":false},"wednesday":{"isOpen":false},"thursday":{"isOpen":false},"friday":{"isOpen":false},"saturday":{"isOpen":false},"sunday":{"isOpen":false},"notes":"Phone: 305-383-6800\nFax: 305-383-6808"},"geo":{"_type":"object","x":846228.1,"y":487852.581}}
{"_type":"location","_id":"loc1537279133885224","name":"Haulover Park","locationDisplayName":"Haulover Park","slug":{"_type":"slug","current":"haulover-park"},"featured":false,"physicalAddress":{"_type":"object","address1":"10800 Collins Ave.","address2":"","city":"Miami","state":"FL","zip":"33154"},"mduid":"loc1537279133885224","publicHours":{"_type":"object","monday":{"isOpen":false},"tuesday":{"isOpen":false},"wednesday":{"isOpen":false},"thursday":{"isOpen":false},"friday":{"isOpen":false},"saturday":{"isOpen":false},"sunday":{"isOpen":false},"notes":"Park open sunrise to sunset.\nBoat ramp open 24 hours, seven days a week."},"geo":{"_type":"object","x":943844.791,"y":571585.616}}
{"_type":"location","_id":"loc1464790717233519","name":"Health District","locationDisplayName":"","slug":{"_type":"slug","current":"health-district"},"featured":false,"physicalAddress":{"_type":"object","address1":"8323 NW 12 Street","address2":"Suite 212","city":"Doral","state":"FL","zip":"33126"},"mduid":"loc1464790717233519","publicHours":{"_type":"object","monday":{"isOpen":false},"tuesday":{"isOpen":false},"wednesday":{"isOpen":false},"thursday":{"isOpen":false},"friday":{"isOpen":false},"saturday":{"isOpen":false},"sunday":{"isOpen":false},"notes":""},"geo":{"_type":"object","x":913556.876,"y":529135.523}}
{"_type":"location","_id":"loc1471286303615701","name":"Herbert S. Saffir Permitting and Inspection Center","locationDisplayName":"Permitting and Inspection Center","slug":{"_type":"slug","current":"herbert-saffir-permitting-inspection-center"},"featured":false,"physicalAddress":{"_type":"object","address1":"11805 SW 26 Street","address2":"","city":"Miami","state":"FL","zip":"33175"},"mduid":"loc1471286303615701","publicHours":{"_type":"object","monday":{"isOpen":false},"tuesday":{"isOpen":false},"wednesday":{"isOpen":false},"thursday":{"isOpen":false},"friday":{"isOpen":false},"saturday":{"isOpen":false},"sunday":{"isOpen":false},"notes":""},"geo":{"_type":"object","x":858278.991,"y":514426.29}}
{"_type":"location","_id":"loc1503690041683926","name":"Hialeah Community Resource Center","locationDisplayName":"","slug":{"_type":"slug","current":"hialeah-community-resource-center"},"featured":false,"physicalAddress":{"_type":"object","address1":"Permanently Closed as of March 31.","address2":"","city":"Hialeah","state":"FL","zip":"33010"},"mduid":"loc1503690041683926","publicHours":{"_type":"object","monday":{"isOpen":false},"tuesday":{"isOpen":false},"wednesday":{"isOpen":false},"thursday":{"isOpen":false},"friday":{"isOpen":false},"saturday":{"isOpen":false},"sunday":{"isOpen":false},"notes":""},"geo":{"_type":"object","x":893099.963804582,"y":542673.3417640568}}
{"_type":"location","_id":"loc1505937037005163","name":"Hialeah District Court","locationDisplayName":"","slug":{"_type":"slug","current":"hialeah-district-court"},"featured":false,"physicalAddress":{"_type":"object","address1":"11 East 6th Street","address2":"","city":"Hialeah","state":"FL","zip":"33010"},"mduid":"loc1505937037005163","publicHours":{"_type":"object","monday":{"isOpen":false},"tuesday":{"isOpen":false},"wednesday":{"isOpen":false},"thursday":{"isOpen":false},"friday":{"isOpen":false},"saturday":{"isOpen":false},"sunday":{"isOpen":false},"notes":""},"geo":{"_type":"object","x":892632.616,"y":543612.067}}
{"_type":"location","_id":"loc1462484205924662","name":"Hickman Building","locationDisplayName":"","slug":{"_type":"slug","current":"hickman-building"},"featured":false,"physicalAddress":{"_type":"object","address1":"275 NW 2nd Street","address2":"","city":"Miami","state":"FL","zip":"33128"},"mduid":"loc1462484205924662","publicHours":{"_type":"object","monday":{"isOpen":false},"tuesday":{"isOpen":false},"wednesday":{"isOpen":false},"thursday":{"isOpen":false},"friday":{"isOpen":false},"saturday":{"isOpen":false},"sunday":{"isOpen":false},"notes":""},"geo":{"_type":"object","x":919745.372,"y":525239.75}}
{"_type":"location","_id":"loc1506353327098989","name":"Hickman Garage (Garage 5)","locationDisplayName":"","slug":{"_type":"slug","current":"hickman-garage-garage-5"},"featured":false,"physicalAddress":{"_type":"object","address1":"270 NW 2nd Street","address2":"","city":"Miami","state":"FL","zip":"33128"},"mduid":"loc1506353327098989","publicHours":{"_type":"object","monday":{"isOpen":false},"tuesday":{"isOpen":false},"wednesday":{"isOpen":false},"thursday":{"isOpen":false},"friday":{"isOpen":false},"saturday":{"isOpen":false},"sunday":{"isOpen":false},"notes":"Closed Saturday and Sunday; County Holidays"},"geo":{"_type":"object","x":919840.75,"y":524891.997}}
{"_type":"location","_id":"loc150635345266816","name":"Hickman Lot (JAC)","locationDisplayName":"","slug":{"_type":"slug","current":"hickman-lot-jac"},"featured":false,"physicalAddress":{"_type":"object","address1":"275 NW 2nd Street","address2":"","city":"Miami","state":"FL","zip":"33128"},"mduid":"loc150635345266816","publicHours":{"_type":"object","monday":{"isOpen":false},"tuesday":{"isOpen":false},"wednesday":{"isOpen":false},"thursday":{"isOpen":false},"friday":{"isOpen":false},"saturday":{"isOpen":false},"sunday":{"isOpen":false},"notes":""},"geo":{"_type":"object","x":919745.372,"y":525239.75}}
{"_type":"location","_id":"loc1496421489932401","name":"Homestead Adult Day Care Center","locationDisplayName":"","slug":{"_type":"slug","current":"homestead-adult-day-care-center"},"featured":false,"physicalAddress":{"_type":"object","address1":"653 NW 4th Street","address2":"","city":"Homestead","state":"FL","zip":"33030"},"mduid":"loc1496421489932401","publicHours":{"_type":"object","monday":{"isOpen":false},"tuesday":{"isOpen":false},"wednesday":{"isOpen":false},"thursday":{"isOpen":false},"friday":{"isOpen":false},"saturday":{"isOpen":false},"sunday":{"isOpen":false},"notes":""},"geo":{"_type":"object","x":825703.541,"y":414661.676}}
{"_type":"location","_id":"loc1462221848774153","name":"Homestead Community Spay/Neuter Clinic","locationDisplayName":"","slug":{"_type":"slug","current":"homestead-community-spay-neuter-clinic"},"featured":false,"physicalAddress":{"_type":"object","address1":"1034 NE 8th Street","address2":"","city":"Homestead","state":"FL","zip":"33030"},"mduid":"loc1462221848774153","publicHours":{"_type":"object","monday":{"isOpen":false},"tuesday":{"isOpen":false},"wednesday":{"isOpen":false},"thursday":{"isOpen":false},"friday":{"isOpen":false},"saturday":{"isOpen":false},"sunday":{"isOpen":false},"notes":"Temporarily Closed"},"geo":{"_type":"object","x":832816.0363613461,"y":415803.9795438255}}
{"_type":"location","_id":"loc1516130301460678","name":"Housing Choice Voucher Office","locationDisplayName":"","slug":{"_type":"slug","current":"housing-choice-voucher-office"},"featured":false,"physicalAddress":{"_type":"object","address1":"7400 NW 19th Street","address2":"Suite H","city":"Miami","state":"FL","zip":"33126"},"mduid":"loc1516130301460678","publicHours":{"_type":"object","monday":{"isOpen":false},"tuesday":{"isOpen":false},"wednesday":{"isOpen":false},"thursday":{"isOpen":false},"friday":{"isOpen":false},"saturday":{"isOpen":false},"sunday":{"isOpen":false},"notes":""},"geo":{"_type":"object","x":880573.497,"y":530138.934}}
{"_type":"location","_id":"loc1496671741126988","name":"Housing Choice Voucher Program","locationDisplayName":"","slug":{"_type":"slug","current":"housing-choice-voucher-program"},"featured":false,"physicalAddress":{"_type":"object","address1":"7400 NW 19TH Street","address2":"","city":"Miami","state":"FL","zip":"33126-1750"},"mduid":"loc1496671741126988","publicHours":{"_type":"object","monday":{"isOpen":false},"tuesday":{"isOpen":false},"wednesday":{"isOpen":false},"thursday":{"isOpen":false},"friday":{"isOpen":false},"saturday":{"isOpen":false},"sunday":{"isOpen":false},"notes":""},"geo":{"_type":"object"}}
{"_type":"location","_id":"loc1462484040406248","name":"Information Technology Center","locationDisplayName":"","slug":{"_type":"slug","current":"information-technology-center"},"featured":false,"physicalAddress":{"_type":"object","address1":"5680 SW 87th Avenue","address2":"","city":"Miami","state":"FL","zip":"33173"},"mduid":"loc1462484040406248","publicHours":{"_type":"object","monday":{"isOpen":false},"tuesday":{"isOpen":false},"wednesday":{"isOpen":false},"thursday":{"isOpen":false},"friday":{"isOpen":false},"saturday":{"isOpen":false},"sunday":{"isOpen":false},"notes":""},"geo":{"_type":"object","x":874826.565,"y":502811.287}}
{"_type":"location","_id":"loc1496163839244260","name":"Intracoastal District Police Station","locationDisplayName":"","slug":{"_type":"slug","current":"intracoastal-district-police-station"},"featured":false,"physicalAddress":{"_type":"object","address1":"15665 Biscayne Boulevard","address2":"","city":"Miami","state":"FL","zip":"33160-4604"},"mduid":"loc1496163839244260","publicHours":{"_type":"object","monday":{"isOpen":false},"tuesday":{"isOpen":false},"wednesday":{"isOpen":false},"thursday":{"isOpen":false},"friday":{"isOpen":false},"saturday":{"isOpen":false},"sunday":{"isOpen":false},"notes":"Phone: 305-940-9980\nFax: 305-947-2839"},"geo":{"_type":"object","x":933910.43,"y":577547.742}}
{"_type":"location","_id":"loc1480370519800934","name":"Jack Orr Senior Center","locationDisplayName":"Jack Orr Senior Center","slug":{"_type":"slug","current":"jack-orr-senior-center"},"featured":false,"physicalAddress":{"_type":"object","address1":"550 NW 5 Street","address2":"","city":"Miami","state":"FL","zip":"33137"},"mduid":"loc1480370519800934","publicHours":{"_type":"object","monday":{"isOpen":false},"tuesday":{"isOpen":false},"wednesday":{"isOpen":false},"thursday":{"isOpen":false},"friday":{"isOpen":false},"saturday":{"isOpen":false},"sunday":{"isOpen":false},"notes":""},"geo":{"_type":"object","x":918096.485,"y":525897.178}}
{"_type":"location","_id":"loc1477081852847304","name":"Jackson Memorial Hospital","locationDisplayName":"","slug":{"_type":"slug","current":"jackson-memorial-hospital"},"featured":false,"physicalAddress":{"_type":"object","address1":"1611 NW 12th Avenue","address2":"","city":"Miami","state":"FL","zip":"33136"},"mduid":"loc1477081852847304","publicHours":{"_type":"object","monday":{"isOpen":false},"tuesday":{"isOpen":false},"wednesday":{"isOpen":false},"thursday":{"isOpen":false},"friday":{"isOpen":false},"saturday":{"isOpen":false},"sunday":{"isOpen":false},"notes":""},"geo":{"_type":"object","x":915422.972,"y":530548.557}}
{"_type":"location","_id":"loc149401536390527","name":"John D. Campbell Agricultural Center","locationDisplayName":"Cooperative Extension (John D. Campbell Agricultural Center)","slug":{"_type":"slug","current":"john-d-campbell-agricultural-center"},"featured":false,"physicalAddress":{"_type":"object","address1":"18710 SW 288 Street","address2":"","city":"Homestead","state":"FL","zip":"33030-2309"},"mduid":"loc149401536390527","publicHours":{"_type":"object","monday":{"isOpen":false},"tuesday":{"isOpen":false},"wednesday":{"isOpen":false},"thursday":{"isOpen":false},"friday":{"isOpen":false},"saturday":{"isOpen":false},"sunday":{"isOpen":false},"notes":""},"geo":{"_type":"object","x":822857.949,"y":423634.322}}
{"_type":"location","_id":"loc1498150675113478","name":"Joseph Caleb Center","locationDisplayName":"Joseph Caleb Center","slug":{"_type":"slug","current":"joseph-caleb-center"},"featured":false,"physicalAddress":{"_type":"object","address1":"5400 NW 22nd Avenue","address2":"3rd Floor","city":"Miami","state":"FL","zip":"33142"},"mduid":"loc1498150675113478","publicHours":{"_type":"object","monday":{"isOpen":false},"tuesday":{"isOpen":false},"wednesday":{"isOpen":false},"thursday":{"isOpen":false},"friday":{"isOpen":false},"saturday":{"isOpen":false},"sunday":{"isOpen":false},"notes":""},"geo":{"_type":"object","x":908417.0246233514,"y":542671.6142874627}}
{"_type":"location","_id":"loc1496164814568772","name":"Kendall District Police Station","locationDisplayName":"","slug":{"_type":"slug","current":"kendall-district-police-station"},"featured":false,"physicalAddress":{"_type":"object","address1":"7707 SW 117th Avenue","address2":"","city":"Miami","state":"FL","zip":"33183-3899"},"mduid":"loc1496164814568772","publicHours":{"_type":"object","monday":{"isOpen":false},"tuesday":{"isOpen":false},"wednesday":{"isOpen":false},"thursday":{"isOpen":false},"friday":{"isOpen":false},"saturday":{"isOpen":false},"sunday":{"isOpen":false},"notes":""},"geo":{"_type":"object"}}
{"_type":"location","_id":"loc1668614714878114","name":"Lakeside Towers","locationDisplayName":"","slug":{"_type":"slug","current":"lakeside-towers"},"featured":false,"physicalAddress":{"_type":"object","address1":"7555 SW 152nd Avenue","address2":"","city":"Miami","state":"FL","zip":"33193"},"mduid":"loc1668614714878114","publicHours":{"_type":"object","monday":{"isOpen":false},"tuesday":{"isOpen":false},"wednesday":{"isOpen":false},"thursday":{"isOpen":false},"friday":{"isOpen":false},"saturday":{"isOpen":false},"sunday":{"isOpen":false},"notes":""},"geo":{"_type":"object","x":841426.6507383715,"y":495614.32452099514}}
{"_type":"location","_id":"loc16766520127331","name":"Leisure Villas","locationDisplayName":"Leisure Villas","slug":{"_type":"slug","current":"leisure-villas"},"featured":false,"physicalAddress":{"_type":"object","address1":"28701 SW 153rd Ave","address2":"","city":"Homestead","state":"FL","zip":"33033"},"mduid":"loc16766520127331","publicHours":{"_type":"object","monday":{"isOpen":false},"tuesday":{"isOpen":false},"wednesday":{"isOpen":false},"thursday":{"isOpen":false},"friday":{"isOpen":false},"saturday":{"isOpen":false},"sunday":{"isOpen":false},"notes":""},"geo":{"_type":"object","x":841403.6935048541,"y":424406.1620939342}}
{"_type":"location","_id":"loc15036904961044","name":"Joseph Caleb/Liberty City Community Resource Center","locationDisplayName":"","slug":{"_type":"slug","current":"liberty-city-community-resource-center"},"featured":false,"physicalAddress":{"_type":"object","address1":"5400 NW 22nd Avenue","address2":"","city":"Miami","state":"FL","zip":"33142"},"mduid":"loc15036904961044","publicHours":{"_type":"object","monday":{"isOpen":false},"tuesday":{"isOpen":false},"wednesday":{"isOpen":false},"thursday":{"isOpen":false},"friday":{"isOpen":false},"saturday":{"isOpen":false},"sunday":{"isOpen":false},"notes":""},"geo":{"_type":"object","x":908417.138,"y":542671.443}}
{"_type":"location","_id":"loc1455029702509424","name":"Location Test ES","locationDisplayName":"","slug":{"_type":"slug","current":"location-test-es"},"featured":false,"physicalAddress":{"_type":"object","address1":"111 NW 1 Street","address2":"","city":"Miami","state":"FL","zip":"33165"},"mduid":"loc1455029702509424","geo":{"_type":"object","x":920433.624,"y":525114.812}}
{"_type":"location","_id":"loc1462484412375161","name":"Main Library","locationDisplayName":"","slug":{"_type":"slug","current":"main-library"},"featured":false,"physicalAddress":{"_type":"object","address1":"101 W Flagler Street","address2":"","city":"Miami","state":"FL","zip":"33130"},"mduid":"loc1462484412375161","publicHours":{"_type":"object","monday":{"isOpen":false},"tuesday":{"isOpen":false},"wednesday":{"isOpen":false},"thursday":{"isOpen":false},"friday":{"isOpen":false},"saturday":{"isOpen":false},"sunday":{"isOpen":false},"notes":""},"geo":{"_type":"object","x":920361.12,"y":524485.459}}
{"_type":"location","_id":"loc1602273208440351","name":"Marlins Park","locationDisplayName":"","slug":{"_type":"slug","current":"marlins-park"},"featured":false,"physicalAddress":{"_type":"object","address1":"501 Marlins Way","address2":"","city":"Miami","state":"FL","zip":"33125"},"mduid":"loc1602273208440351","publicHours":{"_type":"object","monday":{"isOpen":false},"tuesday":{"isOpen":false},"wednesday":{"isOpen":false},"thursday":{"isOpen":false},"friday":{"isOpen":false},"saturday":{"isOpen":false},"sunday":{"isOpen":false},"notes":""},"geo":{"_type":"object","x":912982.759,"y":525824.055}}
{"_type":"location","_id":"loc1462484663239628","name":"Medical Examiner Building","locationDisplayName":"","slug":{"_type":"slug","current":"medical-examiner-building"},"featured":false,"physicalAddress":{"_type":"object","address1":"1851 NW 10th Avenue","address2":"","city":"Miami","state":"FL","zip":"33136"},"mduid":"loc1462484663239628","publicHours":{"_type":"object","monday":{"isOpen":false},"tuesday":{"isOpen":false},"wednesday":{"isOpen":false},"thursday":{"isOpen":false},"friday":{"isOpen":false},"saturday":{"isOpen":false},"sunday":{"isOpen":false},"notes":""},"geo":{"_type":"object","x":915972.423,"y":531509.45}}
{"_type":"location","_id":"loc1465938055494321","name":"Metro West Detention Center","locationDisplayName":"","slug":{"_type":"slug","current":"metro-west-detention-center"},"featured":false,"physicalAddress":{"_type":"object","address1":"13850 NW 41st St","address2":"","city":"Miami","state":"FL","zip":"33178"},"mduid":"loc1465938055494321","publicHours":{"_type":"object","monday":{"isOpen":false},"tuesday":{"isOpen":false},"wednesday":{"isOpen":false},"thursday":{"isOpen":false},"friday":{"isOpen":false},"saturday":{"isOpen":false},"sunday":{"isOpen":false},"notes":""},"geo":{"_type":"object","x":847561.128,"y":537057.936}}
{"_type":"location","_id":"loc1756311036345220","name":"Miami Beach Regional Library","locationDisplayName":"","slug":{"_type":"slug","current":"miami-beach-regional"},"featured":false,"physicalAddress":{"_type":"object","address1":"227 22nd Street","address2":"","city":"Miami Beach","state":"FL","zip":"33139"},"mduid":"loc1756311036345220","publicHours":{"_type":"object","monday":{"isOpen":false},"tuesday":{"isOpen":false},"wednesday":{"isOpen":false},"thursday":{"isOpen":false},"friday":{"isOpen":false},"saturday":{"isOpen":false},"sunday":{"isOpen":false},"notes":""},"geo":{"_type":"object","x":942791.7824879629,"y":533192.5598696254}}
{"_type":"location","_id":"loc1462222158676918","name":"Miami-Dade County Community Spay/Neuter Clinic","locationDisplayName":"","slug":{"_type":"slug","current":"miami-dade-community-spay-neuter-clinic"},"featured":false,"physicalAddress":{"_type":"object","address1":"10700 SW 211th Street","address2":"","city":"Cutler Bay","state":"FL","zip":"33189"},"mduid":"loc1462222158676918","publicHours":{"_type":"object","monday":{"isOpen":false},"tuesday":{"isOpen":false},"wednesday":{"isOpen":false},"thursday":{"isOpen":false},"friday":{"isOpen":false},"saturday":{"isOpen":false},"sunday":{"isOpen":false},"notes":""},"geo":{"_type":"object","x":865356.965,"y":450706.333}}
{"_type":"location","_id":"loc1506353592890706","name":"Miami-Dade Cultural Center Garage","locationDisplayName":"","slug":{"_type":"slug","current":"miami-dade-cultural-center-garage"},"featured":false,"physicalAddress":{"_type":"object","address1":"50 NW 2nd Avenue","address2":"","city":"Miami","state":"FL","zip":"33128"},"mduid":"loc1506353592890706","publicHours":{"_type":"object","monday":{"isOpen":false},"tuesday":{"isOpen":false},"wednesday":{"isOpen":false},"thursday":{"isOpen":false},"friday":{"isOpen":false},"saturday":{"isOpen":false},"sunday":{"isOpen":false},"notes":"County Holiday's 7 a.m. - 5 p.m."},"geo":{"_type":"object","x":920001.747,"y":524554.872}}
{"_type":"location","_id":"loc1668614612010576","name":"Miami Gardens Apartment","locationDisplayName":"","slug":{"_type":"slug","current":"miami-gardens-apartment"},"featured":false,"physicalAddress":{"_type":"object","address1":"2170 NW 183rd Street","address2":"","city":"Miami","state":"FL","zip":"33056"},"mduid":"loc1668614612010576","publicHours":{"_type":"object","monday":{"isOpen":false},"tuesday":{"isOpen":false},"wednesday":{"isOpen":false},"thursday":{"isOpen":false},"friday":{"isOpen":false},"saturday":{"isOpen":false},"sunday":{"isOpen":false},"notes":""},"geo":{"_type":"object","x":906954.5812675108,"y":584909.1631679945}}
{"_type":"location","_id":"loc1480370458207217","name":"Miami Gardens Senior Focal Point Center","locationDisplayName":"Miami Gardens Senior Focal Point Center","slug":{"_type":"slug","current":"miami-gardens-senior-focal-point-center"},"featured":false,"physicalAddress":{"_type":"object","address1":"16405 NW 25 Avenue","address2":"","city":"Miami","state":"FL","zip":"33054"},"mduid":"loc1480370458207217","publicHours":{"_type":"object","monday":{"isOpen":false},"tuesday":{"isOpen":false},"wednesday":{"isOpen":false},"thursday":{"isOpen":false},"friday":{"isOpen":false},"saturday":{"isOpen":false},"sunday":{"isOpen":false},"notes":""},"geo":{"_type":"object","x":905678.802,"y":578800.433}}
{"_type":"location","_id":"loc1473342644375494","name":"Miami International Airport","locationDisplayName":"Miami International Airport","slug":{"_type":"slug","current":"miami-international-airport"},"featured":false,"physicalAddress":{"_type":"object","address1":"2100 NW 42nd Avenue","address2":"","city":"Miami","state":"FL","zip":"33142"},"mduid":"loc1473342644375494","hasPostalAddress":true,"postalAddress":{"_type":"object","address1":"P.O. Box 025504","address2":"","city":"Miami","state":"FL","zip":"33102-5504"},"publicHours":{"_type":"object","monday":{"isOpen":false},"tuesday":{"isOpen":false},"wednesday":{"isOpen":false},"thursday":{"isOpen":false},"friday":{"isOpen":false},"saturday":{"isOpen":false},"sunday":{"isOpen":false},"notes":""},"geo":{"_type":"object","x":898202.673,"y":531811.788}}
{"_type":"location","_id":"loc1496869524276426","name":"Town of Miami Lakes Police Station","locationDisplayName":"","slug":{"_type":"slug","current":"miami-lakes-police-station"},"featured":false,"physicalAddress":{"_type":"object","address1":"6601 Main Street","address2":"","city":"Miami Lakes","state":"FL","zip":"33014"},"mduid":"loc1496869524276426","publicHours":{"_type":"object","monday":{"isOpen":false},"tuesday":{"isOpen":false},"wednesday":{"isOpen":false},"thursday":{"isOpen":false},"friday":{"isOpen":false},"saturday":{"isOpen":false},"sunday":{"isOpen":false},"notes":""},"geo":{"_type":"object","x":883805.687,"y":574668.944}}
{"_type":"location","_id":"loc1496164484891826","name":"Midwest District Police Station","locationDisplayName":"","slug":{"_type":"slug","current":"midwest-district-police-station"},"featured":false,"physicalAddress":{"_type":"object","address1":"9101 NW 25th Street","address2":"","city":"Doral","state":"FL","zip":"33172"},"mduid":"loc1496164484891826","publicHours":{"_type":"object","monday":{"isOpen":false},"tuesday":{"isOpen":false},"wednesday":{"isOpen":false},"thursday":{"isOpen":false},"friday":{"isOpen":false},"saturday":{"isOpen":false},"sunday":{"isOpen":false},"notes":"Phone: 305-471-2800\nFax: 305-471-2835"},"geo":{"_type":"object","x":872202.124,"y":532679.889}}
{"_type":"location","_id":"loc1464727748013708","name":"Moody Drive Trash and Recycling Center","locationDisplayName":"","slug":{"_type":"slug","current":"moody-drive-trash-and-recycling-center"},"featured":false,"physicalAddress":{"_type":"object","address1":"12970 SW 268 Street","address2":"","city":"Homestead","state":"FL","zip":"33032"},"mduid":"loc1464727748013708","publicHours":{"_type":"object","monday":{"isOpen":false},"tuesday":{"isOpen":false},"wednesday":{"isOpen":false},"thursday":{"isOpen":false},"friday":{"isOpen":false},"saturday":{"isOpen":false},"sunday":{"isOpen":false},"notes":""},"geo":{"_type":"object","x":853948.564,"y":430331.939}}
{"_type":"location","_id":"loc1471439194429326","name":"Morales Test","locationDisplayName":"Morales Test","slug":{"_type":"slug","current":"morales-test"},"featured":false,"physicalAddress":{"_type":"object","address1":"12311 nw 1 st","address2":"","city":"Miami","state":"FL","zip":"33333"},"mduid":"loc1471439194429326","geo":{"_type":"object"}}
{"_type":"location","_id":"loc151984108210671","name":"Mosquito Control","locationDisplayName":"","slug":{"_type":"slug","current":"mosquito-control"},"featured":false,"physicalAddress":{"_type":"object","address1":"8901 NW 58 Street","address2":"","city":"Miami","state":"FL","zip":"33178"},"mduid":"loc151984108210671","publicHours":{"_type":"object","monday":{"isOpen":false},"tuesday":{"isOpen":false},"wednesday":{"isOpen":false},"thursday":{"isOpen":false},"friday":{"isOpen":false},"saturday":{"isOpen":false},"sunday":{"isOpen":false},"notes":""},"geo":{"_type":"object","x":872554.543,"y":543255.284}}
{"_type":"location","_id":"loc1631630502640489","name":"Museum Towers","locationDisplayName":"Museum Towers","slug":{"_type":"slug","current":"museum-towers"},"featured":false,"physicalAddress":{"_type":"object","address1":"150 West Flagler Street","address2":"Suite 1900","city":"Miami","state":"FL","zip":"33130"},"mduid":"loc1631630502640489","publicHours":{"_type":"object","monday":{"isOpen":false},"tuesday":{"isOpen":false},"wednesday":{"isOpen":false},"thursday":{"isOpen":false},"friday":{"isOpen":false},"saturday":{"isOpen":false},"sunday":{"isOpen":false},"notes":""},"geo":{"_type":"object","x":920368.022,"y":524276.758}}
{"_type":"location","_id":"loc1503689716022150","name":"Naranja Community Resource Center","locationDisplayName":"","slug":{"_type":"slug","current":"naranja-community-resource-center"},"featured":false,"physicalAddress":{"_type":"object","address1":"13955 SW 264th Street","address2":"","city":"Homestead","state":"FL","zip":"33032"},"mduid":"loc1503689716022150","publicHours":{"_type":"object","monday":{"isOpen":false},"tuesday":{"isOpen":false},"wednesday":{"isOpen":false},"thursday":{"isOpen":false},"friday":{"isOpen":false},"saturday":{"isOpen":false},"sunday":{"isOpen":false},"notes":""},"geo":{"_type":"object","x":848097.9461242668,"y":432534.0398385524}}
{"_type":"location","_id":"loc1496427414898588","name":"North Dade Adult Day Care","locationDisplayName":"","slug":{"_type":"slug","current":"north-dade-adult-day-care-center"},"featured":false,"physicalAddress":{"_type":"object","address1":"60 NE 166th Street","address2":"","city":"Miami","state":"FL","zip":"33162"},"mduid":"loc1496427414898588","publicHours":{"_type":"object","monday":{"isOpen":false},"tuesday":{"isOpen":false},"wednesday":{"isOpen":false},"thursday":{"isOpen":false},"friday":{"isOpen":false},"saturday":{"isOpen":false},"sunday":{"isOpen":false},"notes":""},"geo":{"_type":"object","x":919393.06,"y":579950.498}}
{"_type":"location","_id":"loc1471528553287157","name":"North Dade Justice Center","locationDisplayName":"","slug":{"_type":"slug","current":"north-dade-justice-center"},"featured":false,"physicalAddress":{"_type":"object","address1":"15555 Biscayne Boulevard","address2":"","city":"North Miami Beach","state":"FL","zip":"33160"},"mduid":"loc1471528553287157","publicHours":{"_type":"object","monday":{"isOpen":false},"tuesday":{"isOpen":false},"wednesday":{"isOpen":false},"thursday":{"isOpen":false},"friday":{"isOpen":false},"saturday":{"isOpen":false},"sunday":{"isOpen":false},"notes":""},"geo":{"_type":"object","x":933704.433,"y":576808.352}}
{"_type":"location","_id":"loc146479002379141","name":"North Dade Landfill","locationDisplayName":"","slug":{"_type":"slug","current":"north-dade-landfill"},"featured":false,"physicalAddress":{"_type":"object","address1":"21500 NW 47 Avenue","address2":"","city":"Miami","state":"FL","zip":"33055"},"mduid":"loc146479002379141","publicHours":{"_type":"object","monday":{"isOpen":false},"tuesday":{"isOpen":false},"wednesday":{"isOpen":false},"thursday":{"isOpen":false},"friday":{"isOpen":false},"saturday":{"isOpen":false},"sunday":{"isOpen":false},"notes":""},"geo":{"_type":"object","x":890434.748,"y":594720.247}}
{"_type":"location","_id":"loc1455814193383171","name":"North Dade Pet-Friendly Evacuation Center","locationDisplayName":"","slug":{"_type":"slug","current":"north-dade-pet-friendly-evacuation-center"},"featured":false,"physicalAddress":{"_type":"object","address1":"Dr. Michael M. Krop High School","address2":"1410 County Line Road","city":"Miami","state":"FL","zip":"33179"},"mduid":"loc1455814193383171","publicHours":{"_type":"object","monday":{"isOpen":false},"tuesday":{"isOpen":false},"wednesday":{"isOpen":false},"thursday":{"isOpen":false},"friday":{"isOpen":false},"saturday":{"isOpen":false},"sunday":{"isOpen":false},"notes":""},"geo":{"_type":"object"}}
{"_type":"location","_id":"loc1759515409296245","name":"North Dade Regional Library","locationDisplayName":"North Dade Regional Library","slug":{"_type":"slug","current":"north-dade-regional-library"},"featured":false,"physicalAddress":{"_type":"object","address1":"2455 NW 183rd St.","address2":"","city":"Miami Gardens","state":"FL","zip":"33056"},"mduid":"loc1759515409296245","publicHours":{"_type":"object","monday":{"isOpen":false},"tuesday":{"isOpen":false},"wednesday":{"isOpen":false},"thursday":{"isOpen":false},"friday":{"isOpen":false},"saturday":{"isOpen":false},"sunday":{"isOpen":false},"notes":"Closed during the lunch hour from noon - 1 p.m."},"geo":{"_type":"object","x":905133.5754690577,"y":585248.6264662521}}
{"_type":"location","_id":"loc1464726067219818","name":"North Dade Trash and Recycling Center","locationDisplayName":"","slug":{"_type":"slug","current":"north-dade-trash-and-recycling-center"},"featured":false,"physicalAddress":{"_type":"object","address1":"21500 NW 47 Avenue","address2":"","city":"Miami","state":"FL","zip":"33055"},"mduid":"loc1464726067219818","publicHours":{"_type":"object","monday":{"isOpen":false},"tuesday":{"isOpen":false},"wednesday":{"isOpen":false},"thursday":{"isOpen":false},"friday":{"isOpen":false},"saturday":{"isOpen":false},"sunday":{"isOpen":false},"notes":""},"geo":{"_type":"object","x":890435.2042144582,"y":594721.6738616864}}
{"_type":"location","_id":"loc1464790174689427","name":"Northeast Transfer Station","locationDisplayName":"","slug":{"_type":"slug","current":"northeast-transfer-station"},"featured":false,"physicalAddress":{"_type":"object","address1":"18701 NE 6 Avenue","address2":"","city":"Miami","state":"FL","zip":"33179"},"mduid":"loc1464790174689427","publicHours":{"_type":"object","monday":{"isOpen":false},"tuesday":{"isOpen":false},"wednesday":{"isOpen":false},"thursday":{"isOpen":false},"friday":{"isOpen":false},"saturday":{"isOpen":false},"sunday":{"isOpen":false},"notes":""},"geo":{"_type":"object","x":923023.622,"y":587602.435}}
{"_type":"location","_id":"loc149616463006087","name":"Northside District Police Station","locationDisplayName":"","slug":{"_type":"slug","current":"northside-district-police-station"},"featured":false,"physicalAddress":{"_type":"object","address1":"799 NW 81St Street","address2":"","city":"Miami","state":"FL","zip":"33150"},"mduid":"loc149616463006087","publicHours":{"_type":"object","monday":{"isOpen":false},"tuesday":{"isOpen":false},"wednesday":{"isOpen":false},"thursday":{"isOpen":false},"friday":{"isOpen":false},"saturday":{"isOpen":false},"sunday":{"isOpen":false},"notes":"Phone: 305-836-8601\nFax: 305-694-5004"},"geo":{"_type":"object","x":915989.028,"y":551766.496}}
{"_type":"location","_id":"loc149616468513046","name":"Northwest District Police Station","locationDisplayName":"","slug":{"_type":"slug","current":"northwest-district-police-station"},"featured":false,"physicalAddress":{"_type":"object","address1":"5975 Miami Lakes Drive East","address2":"","city":"Miami Lakes","state":"FL","zip":"33014-2466"},"mduid":"loc149616468513046","publicHours":{"_type":"object","monday":{"isOpen":false},"tuesday":{"isOpen":false},"wednesday":{"isOpen":false},"thursday":{"isOpen":false},"friday":{"isOpen":false},"saturday":{"isOpen":false},"sunday":{"isOpen":false},"notes":""},"geo":{"_type":"object","x":886812.671,"y":573657.077}}
{"_type":"location","_id":"loc1464726240382372","name":"Norwood Trash and Recycling Center","locationDisplayName":"","slug":{"_type":"slug","current":"norwood-trash-and-recycling-center"},"featured":false,"physicalAddress":{"_type":"object","address1":"19901 NW 7 Avenue","address2":"","city":"Miami Gardens","state":"FL","zip":"33169"},"mduid":"loc1464726240382372","publicHours":{"_type":"object","monday":{"isOpen":false},"tuesday":{"isOpen":false},"wednesday":{"isOpen":false},"thursday":{"isOpen":false},"friday":{"isOpen":false},"saturday":{"isOpen":false},"sunday":{"isOpen":false},"notes":""},"geo":{"_type":"object","x":914499.319,"y":590767.108}}
{"_type":"location","_id":"loc147144911515114","name":"Okeechobee Parking Garage","locationDisplayName":"Okeechobee Metrorail Parking Garage","slug":{"_type":"slug","current":"okeechobee-parking-garage"},"featured":false,"physicalAddress":{"_type":"object","address1":"2005 West Okeechobee Road","address2":"","city":"Hialeah","state":"FL","zip":"33010"},"mduid":"loc147144911515114","publicHours":{"_type":"object","monday":{"isOpen":false},"tuesday":{"isOpen":false},"wednesday":{"isOpen":false},"thursday":{"isOpen":false},"friday":{"isOpen":false},"saturday":{"isOpen":false},"sunday":{"isOpen":false},"notes":""},"geo":{"_type":"object","x":885772.01,"y":548232.635}}
{"_type":"location","_id":"loc1536867450493389","name":"Opa-Locka City Hall","locationDisplayName":"","slug":{"_type":"slug","current":"opa-locka-city-hall"},"featured":false,"physicalAddress":{"_type":"object","address1":"780 Fisherman Street","address2":"","city":"Opa-Locka","state":"FL","zip":"33054"},"mduid":"loc1536867450493389","publicHours":{"_type":"object","monday":{"isOpen":false},"tuesday":{"isOpen":false},"wednesday":{"isOpen":false},"thursday":{"isOpen":false},"friday":{"isOpen":false},"saturday":{"isOpen":false},"sunday":{"isOpen":false},"notes":""},"geo":{"_type":"object","x":902238.372,"y":570758.247}}
{"_type":"location","_id":"loc1472747918509416","name":"Osvaldo N. Soto Miami-Dade Justice Center","locationDisplayName":"","slug":{"_type":"slug","current":"osvaldo-n-soto-miami-dade-justice-center"},"featured":false,"physicalAddress":{"_type":"object","address1":"20 NW 1st Avenue","address2":"","city":"Miami","state":"FL","zip":"33128"},"mduid":"loc1472747918509416","publicHours":{"_type":"object","monday":{"isOpen":false},"tuesday":{"isOpen":false},"wednesday":{"isOpen":false},"thursday":{"isOpen":false},"friday":{"isOpen":false},"saturday":{"isOpen":false},"sunday":{"isOpen":false},"notes":""},"geo":{"_type":"object","x":920636.2634856931,"y":524663.9333547057}}
{"_type":"location","_id":"loc1506353747287167","name":"Overtown Transit Village Garage","locationDisplayName":"","slug":{"_type":"slug","current":"overtown-transit-village-garage"},"featured":false,"physicalAddress":{"_type":"object","address1":"701 NW 1st Court","address2":"","city":"Miami","state":"FL","zip":"33136"},"mduid":"loc1506353747287167","publicHours":{"_type":"object","monday":{"isOpen":false},"tuesday":{"isOpen":false},"wednesday":{"isOpen":false},"thursday":{"isOpen":false},"friday":{"isOpen":false},"saturday":{"isOpen":false},"sunday":{"isOpen":false},"notes":"Closed Saturday and Sunday; County Holidays"},"geo":{"_type":"object","x":920522.601,"y":527010.871}}
{"_type":"location","_id":"loc1462483157330387","name":"Overtown Transit Village North","locationDisplayName":"","slug":{"_type":"slug","current":"overtown-transit-village-north"},"featured":true,"physicalAddress":{"_type":"object","address1":"701 NW 1st Court","address2":"","city":"Miami","state":"FL","zip":"33136"},"mduid":"loc1462483157330387","publicHours":{"_type":"object","monday":{"isOpen":false},"tuesday":{"isOpen":false},"wednesday":{"isOpen":false},"thursday":{"isOpen":false},"friday":{"isOpen":false},"saturday":{"isOpen":false},"sunday":{"isOpen":false},"notes":""},"geo":{"_type":"object","x":920522.7190279309,"y":527012.0501774907}}
{"_type":"location","_id":"loc1496409739736747","name":"Overtown Transit Village South","locationDisplayName":"","slug":{"_type":"slug","current":"overtown-transit-village-south"},"featured":true,"physicalAddress":{"_type":"object","address1":"601 NW 1st Court","address2":"","city":"Miami","state":"FL","zip":"33136"},"mduid":"loc1496409739736747","publicHours":{"_type":"object","monday":{"isOpen":false},"tuesday":{"isOpen":false},"wednesday":{"isOpen":false},"thursday":{"isOpen":false},"friday":{"isOpen":false},"saturday":{"isOpen":false},"sunday":{"isOpen":false},"notes":""},"geo":{"_type":"object","x":920548.7668086105,"y":526626.1928867192}}
{"_type":"location","_id":"loc1464726403194253","name":"Palm Springs North Trash and Recycling Center","locationDisplayName":"","slug":{"_type":"slug","current":"palm-springs-north-trash-and-recycling-center"},"featured":false,"physicalAddress":{"_type":"object","address1":"7870 NW 178 Street","address2":"","city":"Hialeah","state":"FL","zip":"33015"},"mduid":"loc1464726403194253","publicHours":{"_type":"object","monday":{"isOpen":false},"tuesday":{"isOpen":false},"wednesday":{"isOpen":false},"thursday":{"isOpen":false},"friday":{"isOpen":false},"saturday":{"isOpen":false},"sunday":{"isOpen":false},"notes":""},"geo":{"_type":"object","x":876735.562,"y":582390.436}}
{"_type":"location","_id":"loc1496869711128468","name":"Village of Palmetto Bay Police Station","locationDisplayName":"","slug":{"_type":"slug","current":"palmetto-bay-police-station"},"featured":false,"physicalAddress":{"_type":"object","address1":"9705 East Hibiscus Street","address2":"","city":"Palmetto Bay","state":"FL","zip":"33157"},"mduid":"loc1496869711128468","publicHours":{"_type":"object","monday":{"isOpen":false},"tuesday":{"isOpen":false},"wednesday":{"isOpen":false},"thursday":{"isOpen":false},"friday":{"isOpen":false},"saturday":{"isOpen":false},"sunday":{"isOpen":false},"notes":""},"geo":{"_type":"object","x":870633.146,"y":462328.474}}
{"_type":"location","_id":"loc152149189991766","name":"Palmetto Golf Course","locationDisplayName":"Palmetto Golf Course","slug":{"_type":"slug","current":"palmetto-golf-course"},"featured":false,"physicalAddress":{"_type":"object","address1":"9300 SW 152nd Street","address2":"","city":"Miami","state":"FL","zip":"33157"},"mduid":"loc152149189991766","publicHours":{"_type":"object","monday":{"isOpen":false},"tuesday":{"isOpen":false},"wednesday":{"isOpen":false},"thursday":{"isOpen":false},"friday":{"isOpen":false},"saturday":{"isOpen":false},"sunday":{"isOpen":false},"notes":"Last bucket sold at 8:30 p.m. (Sundays at 5:30 p.m.)"},"geo":{"_type":"object","x":872368.784,"y":471312.04}}
{"_type":"location","_id":"loc1521492801700182","name":"Palmetto Mini Golf","locationDisplayName":"Palmetto Mini Golf","slug":{"_type":"slug","current":"palmetto-mini-golf"},"featured":false,"physicalAddress":{"_type":"object","address1":"9300 SW 152nd Street","address2":"","city":"Miami","state":"FL","zip":"33157"},"mduid":"loc1521492801700182","publicHours":{"_type":"object","monday":{"isOpen":false},"tuesday":{"isOpen":false},"wednesday":{"isOpen":false},"thursday":{"isOpen":false},"friday":{"isOpen":false},"saturday":{"isOpen":false},"sunday":{"isOpen":false},"notes":"Last tee time is 8 p.m."},"geo":{"_type":"object","x":872368.784,"y":471312.04}}
{"_type":"location","_id":"loc1506354386118234","name":"Parking Operations Office","locationDisplayName":"","slug":{"_type":"slug","current":"parking-operations-office"},"featured":false,"physicalAddress":{"_type":"object","address1":"200 NW 2nd Avenue","address2":"Suite 216","city":"Miami","state":"FL","zip":"33128"},"mduid":"loc1506354386118234","publicHours":{"_type":"object","monday":{"isOpen":false},"tuesday":{"isOpen":false},"wednesday":{"isOpen":false},"thursday":{"isOpen":false},"friday":{"isOpen":false},"saturday":{"isOpen":false},"sunday":{"isOpen":false},"notes":"Closed on weekends and County holidays"},"geo":{"_type":"object","x":920063.52,"y":525293.865}}
{"_type":"location","_id":"loc152820123403815","name":"Partners Park","locationDisplayName":"","slug":{"_type":"slug","current":"partners-park"},"featured":false,"physicalAddress":{"_type":"object","address1":"5536 NW 21ST AVE","address2":"","city":"Miami","state":"FL","zip":"33142"},"mduid":"loc152820123403815","publicHours":{"_type":"object","monday":{"isOpen":false},"tuesday":{"isOpen":false},"wednesday":{"isOpen":false},"thursday":{"isOpen":false},"friday":{"isOpen":false},"saturday":{"isOpen":false},"sunday":{"isOpen":false},"notes":""},"geo":{"_type":"object","x":908896.249,"y":543001.311}}
{"_type":"location","_id":"loc1528201296390401","name":"Pelican Harbor Marina","locationDisplayName":"","slug":{"_type":"slug","current":"pelican-harbor-marina"},"featured":false,"physicalAddress":{"_type":"object","address1":"1275 NE 79TH ST","address2":"","city":"Miami","state":"FL","zip":"33138"},"mduid":"loc1528201296390401","publicHours":{"_type":"object","monday":{"isOpen":false},"tuesday":{"isOpen":false},"wednesday":{"isOpen":false},"thursday":{"isOpen":false},"friday":{"isOpen":false},"saturday":{"isOpen":false},"sunday":{"isOpen":false},"notes":""},"geo":{"_type":"object","x":930247.127,"y":551837.465}}
{"_type":"location","_id":"loc152820134616427","name":"Pelican Island","locationDisplayName":"","slug":{"_type":"slug","current":"pelican-island"},"featured":false,"physicalAddress":{"_type":"object","address1":"1150' NORTH OF PELICAN HARBOR","address2":"","city":"Miami","state":"FL","zip":"33141"},"mduid":"loc152820134616427","publicHours":{"_type":"object","monday":{"isOpen":false},"tuesday":{"isOpen":false},"wednesday":{"isOpen":false},"thursday":{"isOpen":false},"friday":{"isOpen":false},"saturday":{"isOpen":false},"sunday":{"isOpen":false},"notes":""},"geo":{"_type":"object"}}
{"_type":"location","_id":"loc1533322397227378","name":"Permitting and Inspection Center","locationDisplayName":"Permitting and Inspection Center","slug":{"_type":"slug","current":"permitting-inspection-center"},"featured":false,"physicalAddress":{"_type":"object","address1":"11805 SW 26th Street","address2":"","city":"Miami","state":"FL","zip":"33175"},"mduid":"loc1533322397227378","publicHours":{"_type":"object","monday":{"isOpen":false},"tuesday":{"isOpen":false},"wednesday":{"isOpen":false},"thursday":{"isOpen":false},"friday":{"isOpen":false},"saturday":{"isOpen":false},"sunday":{"isOpen":false},"notes":""},"geo":{"_type":"object","x":858278.991,"y":514426.29}}
{"_type":"location","_id":"loc1503689828059166","name":"Perrine Community Resource Center","locationDisplayName":"","slug":{"_type":"slug","current":"perrine-community-resource-center"},"featured":false,"physicalAddress":{"_type":"object","address1":"17801 Homestead Avenue","address2":"","city":"Miami","state":"FL","zip":"33157"},"mduid":"loc1503689828059166","publicHours":{"_type":"object","monday":{"isOpen":false},"tuesday":{"isOpen":false},"wednesday":{"isOpen":false},"thursday":{"isOpen":false},"friday":{"isOpen":false},"saturday":{"isOpen":false},"sunday":{"isOpen":false},"notes":""},"geo":{"_type":"object","x":868911.661,"y":461905.236}}
{"_type":"location","_id":"loc166861475893867","name":"Perrine Rainbow","locationDisplayName":"","slug":{"_type":"slug","current":"perrine-rainbow"},"featured":false,"physicalAddress":{"_type":"object","address1":"10000 SW 173rd Terrace","address2":"","city":"Miami","state":"FL","zip":"33157"},"mduid":"loc166861475893867","publicHours":{"_type":"object","monday":{"isOpen":false},"tuesday":{"isOpen":false},"wednesday":{"isOpen":false},"thursday":{"isOpen":false},"friday":{"isOpen":false},"saturday":{"isOpen":false},"sunday":{"isOpen":false},"notes":""},"geo":{"_type":"object","x":869525.1906990637,"y":463734.8051705599}}
{"_type":"location","_id":"loc146470117318693","name":"Pet Adoption and Protection Center","locationDisplayName":"New Animal Shelter","slug":{"_type":"slug","current":"pet-adoption-and-protection-center"},"featured":true,"physicalAddress":{"_type":"object","address1":"3599 NW 79 Avenue","address2":"","city":"Doral","state":"FL","zip":"33122"},"mduid":"loc146470117318693","publicHours":{"_type":"object","monday":{"isOpen":false},"tuesday":{"isOpen":false},"wednesday":{"isOpen":false},"thursday":{"isOpen":false},"friday":{"isOpen":false},"saturday":{"isOpen":false},"sunday":{"isOpen":false},"notes":""},"geo":{"_type":"object","x":878310.282,"y":536248.227}}
{"_type":"location","_id":"loc1519660861307455","name":"Petco","locationDisplayName":"","slug":{"_type":"slug","current":"petco"},"featured":false,"physicalAddress":{"_type":"object","address1":"6200 S. Dixie Highway","address2":"","city":"South Miami","state":"FL","zip":"33143"},"mduid":"loc1519660861307455","publicHours":{"_type":"object","monday":{"isOpen":false},"tuesday":{"isOpen":false},"wednesday":{"isOpen":false},"thursday":{"isOpen":false},"friday":{"isOpen":false},"saturday":{"isOpen":false},"sunday":{"isOpen":false},"notes":"*Closed Thanksgiving and Christmas Day"},"geo":{"_type":"object","x":888804.338,"y":497533.729}}
{"_type":"location","_id":"loc152820150664827","name":"Pine Island Lake Park","locationDisplayName":"","slug":{"_type":"slug","current":"pine-island-lake-park"},"featured":false,"physicalAddress":{"_type":"object","address1":"12970 SW 268TH ST","address2":"","city":"Miami","state":"FL","zip":"33032"},"mduid":"loc152820150664827","publicHours":{"_type":"object","monday":{"isOpen":false},"tuesday":{"isOpen":false},"wednesday":{"isOpen":false},"thursday":{"isOpen":false},"friday":{"isOpen":false},"saturday":{"isOpen":false},"sunday":{"isOpen":false},"notes":""},"geo":{"_type":"object"}}
{"_type":"location","_id":"loc1528201551654911","name":"Pine Ridge B.M.X. Park","locationDisplayName":"","slug":{"_type":"slug","current":"pine-ridge-bmx-park"},"featured":false,"physicalAddress":{"_type":"object","address1":"13000 SW 216TH ST","address2":"","city":"Miami","state":"FL","zip":"33170"},"mduid":"loc1528201551654911","publicHours":{"_type":"object","monday":{"isOpen":false},"tuesday":{"isOpen":false},"wednesday":{"isOpen":false},"thursday":{"isOpen":false},"friday":{"isOpen":false},"saturday":{"isOpen":false},"sunday":{"isOpen":false},"notes":""},"geo":{"_type":"object","x":853193.109,"y":448401.484}}
{"_type":"location","_id":"loc1528201610598365","name":"Pine Shore Pineland Preserve","locationDisplayName":"","slug":{"_type":"slug","current":"pine-shore-pineland-preserve"},"featured":false,"physicalAddress":{"_type":"object","address1":"11151 SW 128TH ST","address2":"","city":"Miami","state":"FL","zip":"33176"},"mduid":"loc1528201610598365","publicHours":{"_type":"object","monday":{"isOpen":false},"tuesday":{"isOpen":false},"wednesday":{"isOpen":false},"thursday":{"isOpen":false},"friday":{"isOpen":false},"saturday":{"isOpen":false},"sunday":{"isOpen":false},"notes":""},"geo":{"_type":"object","x":862229.446,"y":478901.51}}
{"_type":"location","_id":"loc1528201648734708","name":"Pinewoods Park","locationDisplayName":"","slug":{"_type":"slug","current":"pinewoods-park"},"featured":false,"physicalAddress":{"_type":"object","address1":"13181 SW 102ND AVE","address2":"","city":"Miami","state":"FL","zip":"33176"},"mduid":"loc1528201648734708","publicHours":{"_type":"object","monday":{"isOpen":false},"tuesday":{"isOpen":false},"wednesday":{"isOpen":false},"thursday":{"isOpen":false},"friday":{"isOpen":false},"saturday":{"isOpen":false},"sunday":{"isOpen":false},"notes":""},"geo":{"_type":"object","x":867461.459,"y":477986.973}}
{"_type":"location","_id":"loc1528201695670861","name":"PLANT","locationDisplayName":"","slug":{"_type":"slug","current":"plant"},"featured":false,"physicalAddress":{"_type":"object","address1":"22200 SW 137TH AVE","address2":"","city":"Miami","state":"FL","zip":"33170"},"mduid":"loc1528201695670861","publicHours":{"_type":"object","monday":{"isOpen":false},"tuesday":{"isOpen":false},"wednesday":{"isOpen":false},"thursday":{"isOpen":false},"friday":{"isOpen":false},"saturday":{"isOpen":false},"sunday":{"isOpen":false},"notes":""},"geo":{"_type":"object"}}
{"_type":"location","_id":"loc1528201739112134","name":"Plaza Licenciado Benito Juarez","locationDisplayName":"","slug":{"_type":"slug","current":"plaza-licenciado-benito-juarez"},"featured":false,"physicalAddress":{"_type":"object","address1":"19825 SW 376TH ST","address2":"","city":"Miami","state":"FL","zip":"33034"},"mduid":"loc1528201739112134","publicHours":{"_type":"object","monday":{"isOpen":false},"tuesday":{"isOpen":false},"wednesday":{"isOpen":false},"thursday":{"isOpen":false},"friday":{"isOpen":false},"saturday":{"isOpen":false},"sunday":{"isOpen":false},"notes":""},"geo":{"_type":"object","x":817153.252,"y":395034.716}}
{"_type":"location","_id":"loc1462485190141910","name":"PortMiami","locationDisplayName":"","slug":{"_type":"slug","current":"portmiami"},"featured":false,"physicalAddress":{"_type":"object","address1":"1080 Caribbean Way","address2":"","city":"Miami","state":"FL","zip":"33132"},"mduid":"loc1462485190141910","publicHours":{"_type":"object","monday":{"isOpen":false},"tuesday":{"isOpen":false},"wednesday":{"isOpen":false},"thursday":{"isOpen":false},"friday":{"isOpen":false},"saturday":{"isOpen":false},"sunday":{"isOpen":false},"notes":""},"geo":{"_type":"object","x":926622.7482910252,"y":525319.1445194395}}
{"_type":"location","_id":"loc1465938151637581","name":"Pre-Trial Detention Center","locationDisplayName":"","slug":{"_type":"slug","current":"pre-trial-detention-center"},"featured":false,"physicalAddress":{"_type":"object","address1":"1321 NW 13th St","address2":"","city":"Miami","state":"FL","zip":"33125"},"mduid":"loc1465938151637581","publicHours":{"_type":"object","monday":{"isOpen":false},"tuesday":{"isOpen":false},"wednesday":{"isOpen":false},"thursday":{"isOpen":false},"friday":{"isOpen":false},"saturday":{"isOpen":false},"sunday":{"isOpen":false},"notes":""},"geo":{"_type":"object","x":913913.678,"y":528906.079}}
{"_type":"location","_id":"loc1528201780430819","name":"Princetonian Park","locationDisplayName":"","slug":{"_type":"slug","current":"princetonian-park"},"featured":false,"physicalAddress":{"_type":"object","address1":"12755 SW 252ND TER","address2":"","city":"Miami","state":"FL","zip":"33032"},"mduid":"loc1528201780430819","publicHours":{"_type":"object","monday":{"isOpen":false},"tuesday":{"isOpen":false},"wednesday":{"isOpen":false},"thursday":{"isOpen":false},"friday":{"isOpen":false},"saturday":{"isOpen":false},"sunday":{"isOpen":false},"notes":""},"geo":{"_type":"object","x":854885.229,"y":436272.156}}
{"_type":"location","_id":"loc1528201831382367","name":"Quail Roost Park","locationDisplayName":"","slug":{"_type":"slug","current":"quail-roost-park"},"featured":false,"physicalAddress":{"_type":"object","address1":"11336 Quail Roost Drive","address2":"","city":"Miami","state":"FL","zip":"33157"},"mduid":"loc1528201831382367","publicHours":{"_type":"object","monday":{"isOpen":false},"tuesday":{"isOpen":false},"wednesday":{"isOpen":false},"thursday":{"isOpen":false},"friday":{"isOpen":false},"saturday":{"isOpen":false},"sunday":{"isOpen":false},"notes":""},"geo":{"_type":"object"}}
{"_type":"location","_id":"loc150100031195132","name":"R. David Paulison Fire Rescue Headquarters","locationDisplayName":"Fire Rescue Headquarters","slug":{"_type":"slug","current":"r-david-paulison-fire-rescue-headquarters"},"featured":false,"physicalAddress":{"_type":"object","address1":"9300 NW 41st St","address2":"","city":"Miami","state":"FL","zip":"33178-2414"},"mduid":"loc150100031195132","publicHours":{"_type":"object","monday":{"isOpen":false},"tuesday":{"isOpen":false},"wednesday":{"isOpen":false},"thursday":{"isOpen":false},"friday":{"isOpen":false},"saturday":{"isOpen":false},"sunday":{"isOpen":false},"notes":""},"geo":{"_type":"object","x":870342.764,"y":537183.892}}
{"_type":"location","_id":"loc1528201882046556","name":"R. Hardy Matheson Preserve","locationDisplayName":"","slug":{"_type":"slug","current":"r-hardy-matheson-preserve"},"featured":false,"physicalAddress":{"_type":"object","address1":"11191 SNAPPER CREEK RD","address2":"","city":"CORAL GABLES","state":"FL","zip":"33156"},"mduid":"loc1528201882046556","publicHours":{"_type":"object","monday":{"isOpen":false},"tuesday":{"isOpen":false},"wednesday":{"isOpen":false},"thursday":{"isOpen":false},"friday":{"isOpen":false},"saturday":{"isOpen":false},"sunday":{"isOpen":false},"notes":""},"geo":{"_type":"object","x":893391.525,"y":485574.811}}
{"_type":"location","_id":"loc1528201925430349","name":"Redland Fruit & Spice Park","locationDisplayName":"","slug":{"_type":"slug","current":"redland-fruit-spice-park"},"featured":false,"physicalAddress":{"_type":"object","address1":"24801 SW 187TH AVE","address2":"","city":"Miami","state":"FL","zip":"33031"},"mduid":"loc1528201925430349","publicHours":{"_type":"object","monday":{"isOpen":false},"tuesday":{"isOpen":false},"wednesday":{"isOpen":false},"thursday":{"isOpen":false},"friday":{"isOpen":false},"saturday":{"isOpen":false},"sunday":{"isOpen":false},"notes":""},"geo":{"_type":"object","x":823157.345,"y":437036.471}}
{"_type":"location","_id":"loc1464789943429992","name":"Resources Recovery Facility","locationDisplayName":"","slug":{"_type":"slug","current":"resources-recovery-facility"},"featured":false,"physicalAddress":{"_type":"object","address1":"6990 NW 97 Avenue","address2":"","city":"Doral","state":"FL","zip":"33178"},"mduid":"loc1464789943429992","publicHours":{"_type":"object","monday":{"isOpen":false},"tuesday":{"isOpen":false},"wednesday":{"isOpen":false},"thursday":{"isOpen":false},"friday":{"isOpen":false},"saturday":{"isOpen":false},"sunday":{"isOpen":false},"notes":""},"geo":{"_type":"object","x":868186.205,"y":546672.696}}
{"_type":"location","_id":"loc1503690600051270","name":"Reverend Dr. Edward T. Graham Community Resource Center","locationDisplayName":"","slug":{"_type":"slug","current":"reverend-dr-edward-t-graham-community-resource-center"},"featured":false,"physicalAddress":{"_type":"object","address1":"16405 NW 25th Avenue","address2":"","city":"Miami Gardens","state":"FL","zip":"33054"},"mduid":"loc1503690600051270","publicHours":{"_type":"object","monday":{"isOpen":false},"tuesday":{"isOpen":false},"wednesday":{"isOpen":false},"thursday":{"isOpen":false},"friday":{"isOpen":false},"saturday":{"isOpen":false},"sunday":{"isOpen":false},"notes":""},"geo":{"_type":"object","x":905678.196724995,"y":578800.6637723481}}
{"_type":"location","_id":"loc1464727814598751","name":"Richmond Heights Trash and Recycling Center","locationDisplayName":"","slug":{"_type":"slug","current":"richmond-heights-trash-and-recycling-center"},"featured":false,"physicalAddress":{"_type":"object","address1":"14050 Boggs Drive","address2":"","city":"Miami","state":"FL","zip":"33176"},"mduid":"loc1464727814598751","publicHours":{"_type":"object","monday":{"isOpen":false},"tuesday":{"isOpen":false},"wednesday":{"isOpen":false},"thursday":{"isOpen":false},"friday":{"isOpen":false},"saturday":{"isOpen":false},"sunday":{"isOpen":false},"notes":""},"geo":{"_type":"object","x":862238.149,"y":474578.469}}
{"_type":"location","_id":"loc152820197012627","name":"Richmond Triangle Park","locationDisplayName":"","slug":{"_type":"slug","current":"richmond-triangle-park"},"featured":false,"physicalAddress":{"_type":"object","address1":"14355 GRAVES DR","address2":"","city":"Miami","state":"FL","zip":"33176"},"mduid":"loc152820197012627","publicHours":{"_type":"object","monday":{"isOpen":false},"tuesday":{"isOpen":false},"wednesday":{"isOpen":false},"thursday":{"isOpen":false},"friday":{"isOpen":false},"saturday":{"isOpen":false},"sunday":{"isOpen":false},"notes":""},"geo":{"_type":"object","x":862643.562,"y":473548.974}}
{"_type":"location","_id":"loc1528202023678757","name":"Roberta Hunter Park","locationDisplayName":"","slug":{"_type":"slug","current":"roberta-hunter-park"},"featured":false,"physicalAddress":{"_type":"object","address1":"SW 117TH AVE / SW 200TH ST","address2":"","city":"Miami","state":"FL","zip":"33189"},"mduid":"loc1528202023678757","publicHours":{"_type":"object","monday":{"isOpen":false},"tuesday":{"isOpen":false},"wednesday":{"isOpen":false},"thursday":{"isOpen":false},"friday":{"isOpen":false},"saturday":{"isOpen":false},"sunday":{"isOpen":false},"notes":""},"geo":{"_type":"object"}}
{"_type":"location","_id":"loc152820207175098","name":"Rock Ridge Park","locationDisplayName":"","slug":{"_type":"slug","current":"rock-ridge-park"},"featured":false,"physicalAddress":{"_type":"object","address1":"10810 SW 117TH AVE","address2":"","city":"Miami","state":"FL","zip":"33176"},"mduid":"loc152820207175098","publicHours":{"_type":"object","monday":{"isOpen":false},"tuesday":{"isOpen":false},"wednesday":{"isOpen":false},"thursday":{"isOpen":false},"friday":{"isOpen":false},"saturday":{"isOpen":false},"sunday":{"isOpen":false},"notes":""},"geo":{"_type":"object","x":863603.095,"y":482707.9}}
{"_type":"location","_id":"loc1528202107942626","name":"Rockdale Park","locationDisplayName":"","slug":{"_type":"slug","current":"rockdale-park"},"featured":false,"physicalAddress":{"_type":"object","address1":"9325 SW 146TH ST","address2":"","city":"Miami","state":"FL","zip":"33176"},"mduid":"loc1528202107942626","publicHours":{"_type":"object","monday":{"isOpen":false},"tuesday":{"isOpen":false},"wednesday":{"isOpen":false},"thursday":{"isOpen":false},"friday":{"isOpen":false},"saturday":{"isOpen":false},"sunday":{"isOpen":false},"notes":""},"geo":{"_type":"object","x":872150.502,"y":473344.941}}
{"_type":"location","_id":"loc1528202169268566","name":"Rockway Park","locationDisplayName":"","slug":{"_type":"slug","current":"rockway-park"},"featured":false,"physicalAddress":{"_type":"object","address1":"9460 SW 27TH DR","address2":"","city":"Miami","state":"FL","zip":"33165"},"mduid":"loc1528202169268566","publicHours":{"_type":"object","monday":{"isOpen":false},"tuesday":{"isOpen":false},"wednesday":{"isOpen":false},"thursday":{"isOpen":false},"friday":{"isOpen":false},"saturday":{"isOpen":false},"sunday":{"isOpen":false},"notes":""},"geo":{"_type":"object","x":870814.871,"y":513353.078}}
{"_type":"location","_id":"loc1528202206382990","name":"Rocky Creek Park","locationDisplayName":"","slug":{"_type":"slug","current":"rocky-creek-park"},"featured":false,"physicalAddress":{"_type":"object","address1":"3305 NW 48TH TER","address2":"","city":"Miami","state":"FL","zip":"33142"},"mduid":"loc1528202206382990","publicHours":{"_type":"object","monday":{"isOpen":false},"tuesday":{"isOpen":false},"wednesday":{"isOpen":false},"thursday":{"isOpen":false},"friday":{"isOpen":false},"saturday":{"isOpen":false},"sunday":{"isOpen":false},"notes":""},"geo":{"_type":"object","x":902595.396,"y":540412.572}}
{"_type":"location","_id":"loc152820224552612","name":"Ron Ehmann Park","locationDisplayName":"","slug":{"_type":"slug","current":"ron-ehmann-park"},"featured":false,"physicalAddress":{"_type":"object","address1":"10995 SW 97TH AVE","address2":"","city":"Miami","state":"FL","zip":"33176"},"mduid":"loc152820224552612","publicHours":{"_type":"object","monday":{"isOpen":false},"tuesday":{"isOpen":false},"wednesday":{"isOpen":false},"thursday":{"isOpen":false},"friday":{"isOpen":false},"saturday":{"isOpen":false},"sunday":{"isOpen":false},"notes":""},"geo":{"_type":"object","x":870098.061,"y":485474.42}}
{"_type":"location","_id":"loc1528202282222950","name":"Royal Colonial Park","locationDisplayName":"","slug":{"_type":"slug","current":"royal-colonial-park"},"featured":false,"physicalAddress":{"_type":"object","address1":"14850 SW 280TH ST","address2":"","city":"Miami","state":"FL","zip":"33033"},"mduid":"loc1528202282222950","publicHours":{"_type":"object","monday":{"isOpen":false},"tuesday":{"isOpen":false},"wednesday":{"isOpen":false},"thursday":{"isOpen":false},"friday":{"isOpen":false},"saturday":{"isOpen":false},"sunday":{"isOpen":false},"notes":""},"geo":{"_type":"object"}}
{"_type":"location","_id":"loc152820251059889","name":"Royale Green Park","locationDisplayName":"","slug":{"_type":"slug","current":"royale-green-park"},"featured":false,"physicalAddress":{"_type":"object","address1":"13000 SW 45TH LN","address2":"","city":"Miami","state":"FL","zip":"33175"},"mduid":"loc152820251059889","publicHours":{"_type":"object","monday":{"isOpen":false},"tuesday":{"isOpen":false},"wednesday":{"isOpen":false},"thursday":{"isOpen":false},"friday":{"isOpen":false},"saturday":{"isOpen":false},"sunday":{"isOpen":false},"notes":""},"geo":{"_type":"object","x":851839.796,"y":506007.774}}
{"_type":"location","_id":"loc1528202549724375","name":"Ruben Dario Park","locationDisplayName":"","slug":{"_type":"slug","current":"ruben-dario-park"},"featured":false,"physicalAddress":{"_type":"object","address1":"9825 W FLAGLER ST","address2":"","city":"Miami","state":"FL","zip":"33172"},"mduid":"loc1528202549724375","publicHours":{"_type":"object","monday":{"isOpen":false},"tuesday":{"isOpen":false},"wednesday":{"isOpen":false},"thursday":{"isOpen":false},"friday":{"isOpen":false},"saturday":{"isOpen":false},"sunday":{"isOpen":false},"notes":""},"geo":{"_type":"object"}}
{"_type":"location","_id":"loc1528202691292113","name":"Sabal Chase Park","locationDisplayName":"","slug":{"_type":"slug","current":"sabal-chase-park"},"featured":false,"physicalAddress":{"_type":"object","address1":"10940 SW 113TH PL","address2":"","city":"Miami","state":"FL","zip":"33176"},"mduid":"loc1528202691292113","publicHours":{"_type":"object","monday":{"isOpen":false},"tuesday":{"isOpen":false},"wednesday":{"isOpen":false},"thursday":{"isOpen":false},"friday":{"isOpen":false},"saturday":{"isOpen":false},"sunday":{"isOpen":false},"notes":""},"geo":{"_type":"object","x":860492.624,"y":485621.966}}
{"_type":"location","_id":"loc1528202726636577","name":"San Jacinto Park","locationDisplayName":"","slug":{"_type":"slug","current":"san-jacinto-park"},"featured":false,"physicalAddress":{"_type":"object","address1":"4430 SW 15TH TER","address2":"","city":"Miami","state":"FL","zip":"33134"},"mduid":"loc1528202726636577","publicHours":{"_type":"object","monday":{"isOpen":false},"tuesday":{"isOpen":false},"wednesday":{"isOpen":false},"thursday":{"isOpen":false},"friday":{"isOpen":false},"saturday":{"isOpen":false},"sunday":{"isOpen":false},"notes":""},"geo":{"_type":"object","x":897161.687,"y":518147.717}}
{"_type":"location","_id":"loc1528202757972318","name":"Sandpiper Park","locationDisplayName":"","slug":{"_type":"slug","current":"sandpiper-park"},"featured":false,"physicalAddress":{"_type":"object","address1":"11100 SW 157TH AVE","address2":"","city":"Miami","state":"FL","zip":"33196"},"mduid":"loc1528202757972318","publicHours":{"_type":"object","monday":{"isOpen":false},"tuesday":{"isOpen":false},"wednesday":{"isOpen":false},"thursday":{"isOpen":false},"friday":{"isOpen":false},"saturday":{"isOpen":false},"sunday":{"isOpen":false},"notes":""},"geo":{"_type":"object","x":837239.049,"y":484231.435}}
{"_type":"location","_id":"loc1528202790318184","name":"Schenley Park","locationDisplayName":"","slug":{"_type":"slug","current":"schenley-park"},"featured":false,"physicalAddress":{"_type":"object","address1":"2750 SW 57TH AVE","address2":"","city":"Miami","state":"FL","zip":"33134"},"mduid":"loc1528202790318184","publicHours":{"_type":"object","monday":{"isOpen":false},"tuesday":{"isOpen":false},"wednesday":{"isOpen":false},"thursday":{"isOpen":false},"friday":{"isOpen":false},"saturday":{"isOpen":false},"sunday":{"isOpen":false},"notes":""},"geo":{"_type":"object"}}
{"_type":"location","_id":"loc1528202845964571","name":"Seminole Wayside Addition","locationDisplayName":"","slug":{"_type":"slug","current":"seminole-wayside-addition"},"featured":false,"physicalAddress":{"_type":"object","address1":"SW 300TH  ST and US 1","address2":"","city":"Miami","state":"FL","zip":"33033"},"mduid":"loc1528202845964571","publicHours":{"_type":"object","monday":{"isOpen":false},"tuesday":{"isOpen":false},"wednesday":{"isOpen":false},"thursday":{"isOpen":false},"friday":{"isOpen":false},"saturday":{"isOpen":false},"sunday":{"isOpen":false},"notes":""},"geo":{"_type":"object","x":835088.028,"y":420001.302}}
{"_type":"location","_id":"loc1528202881532423","name":"Seminole Wayside Park","locationDisplayName":"","slug":{"_type":"slug","current":"seminole-wayside-park"},"featured":false,"physicalAddress":{"_type":"object","address1":"29901 S DIXIE HWY","address2":"","city":"Miami","state":"FL","zip":"33033"},"mduid":"loc1528202881532423","publicHours":{"_type":"object","monday":{"isOpen":false},"tuesday":{"isOpen":false},"wednesday":{"isOpen":false},"thursday":{"isOpen":false},"friday":{"isOpen":false},"saturday":{"isOpen":false},"sunday":{"isOpen":false},"notes":""},"geo":{"_type":"object","x":835488.126,"y":420302.159}}
{"_type":"location","_id":"loc1528202915006514","name":"Serena Lakes Park","locationDisplayName":"","slug":{"_type":"slug","current":"serena-lakes-park"},"featured":false,"physicalAddress":{"_type":"object","address1":"13965 SW 180TH ST","address2":"","city":"Miami","state":"FL","zip":"33177"},"mduid":"loc1528202915006514","publicHours":{"_type":"object","monday":{"isOpen":false},"tuesday":{"isOpen":false},"wednesday":{"isOpen":false},"thursday":{"isOpen":false},"friday":{"isOpen":false},"saturday":{"isOpen":false},"sunday":{"isOpen":false},"notes":""},"geo":{"_type":"object"}}
{"_type":"location","_id":"loc1522959737703374","name":"Sexual Crimes Bureau","locationDisplayName":"","slug":{"_type":"slug","current":"sexual-crimes-bureau"},"featured":false,"physicalAddress":{"_type":"object","address1":"1701 NW 87th Avenue","address2":"Suite 222","city":"Doral","state":"FL","zip":"33172"},"mduid":"loc1522959737703374","publicHours":{"_type":"object","monday":{"isOpen":false},"tuesday":{"isOpen":false},"wednesday":{"isOpen":false},"thursday":{"isOpen":false},"friday":{"isOpen":false},"saturday":{"isOpen":false},"sunday":{"isOpen":false},"notes":"Excludes County holidays\nClosed from 12:00 p.m. - 1:00 p.m."},"geo":{"_type":"object"}}
{"_type":"location","_id":"loc1528202946668661","name":"Sgt. Joseph Delancy Park","locationDisplayName":"","slug":{"_type":"slug","current":"sgt-joseph-delancy-park"},"featured":false,"physicalAddress":{"_type":"object","address1":"14450 BOGGS DR","address2":"","city":"Miami","state":"FL","zip":"33176"},"mduid":"loc1528202946668661","publicHours":{"_type":"object","monday":{"isOpen":false},"tuesday":{"isOpen":false},"wednesday":{"isOpen":false},"thursday":{"isOpen":false},"friday":{"isOpen":false},"saturday":{"isOpen":false},"sunday":{"isOpen":false},"notes":""},"geo":{"_type":"object","x":861574.288,"y":473606.364}}
{"_type":"location","_id":"loc1528202981558329","name":"Sharman Park","locationDisplayName":"","slug":{"_type":"slug","current":"sharman-park"},"featured":false,"physicalAddress":{"_type":"object","address1":"21851 SW 123RD AVE","address2":"","city":"Miami","state":"FL","zip":"33170"},"mduid":"loc1528202981558329","publicHours":{"_type":"object","monday":{"isOpen":false},"tuesday":{"isOpen":false},"wednesday":{"isOpen":false},"thursday":{"isOpen":false},"friday":{"isOpen":false},"saturday":{"isOpen":false},"sunday":{"isOpen":false},"notes":""},"geo":{"_type":"object","x":857080.844,"y":447636.68}}
{"_type":"location","_id":"loc1528203013012485","name":"Sidney Wynn Park at Arcola","locationDisplayName":"","slug":{"_type":"slug","current":"sidney-wynn-park-at-arcola"},"featured":false,"physicalAddress":{"_type":"object","address1":"1680 NW 87TH ST","address2":"","city":"Miami","state":"FL","zip":"33147"},"mduid":"loc1528203013012485","publicHours":{"_type":"object","monday":{"isOpen":false},"tuesday":{"isOpen":false},"wednesday":{"isOpen":false},"thursday":{"isOpen":false},"friday":{"isOpen":false},"saturday":{"isOpen":false},"sunday":{"isOpen":false},"notes":""},"geo":{"_type":"object","x":911079.425,"y":553103.581}}
{"_type":"location","_id":"loc1528203051372521","name":"Sierra Park","locationDisplayName":"","slug":{"_type":"slug","current":"sierra-park"},"featured":false,"physicalAddress":{"_type":"object","address1":"19601 NE 1ST PL","address2":"","city":"Miami","state":"FL","zip":"33179"},"mduid":"loc1528203051372521","publicHours":{"_type":"object","monday":{"isOpen":false},"tuesday":{"isOpen":false},"wednesday":{"isOpen":false},"thursday":{"isOpen":false},"friday":{"isOpen":false},"saturday":{"isOpen":false},"sunday":{"isOpen":false},"notes":""},"geo":{"_type":"object","x":919632.846,"y":590075.955}}
{"_type":"location","_id":"loc1528203086142862","name":"Silver Palms Park 1","locationDisplayName":"","slug":{"_type":"slug","current":"silver-palms-park-1"},"featured":false,"physicalAddress":{"_type":"object","address1":"11344 SW 234TH LN","address2":"","city":"Miami","state":"FL","zip":"33032"},"mduid":"loc1528203086142862","publicHours":{"_type":"object","monday":{"isOpen":false},"tuesday":{"isOpen":false},"wednesday":{"isOpen":false},"thursday":{"isOpen":false},"friday":{"isOpen":false},"saturday":{"isOpen":false},"sunday":{"isOpen":false},"notes":""},"geo":{"_type":"object","x":862121.867,"y":442311.779}}
{"_type":"location","_id":"loc1528203118548670","name":"Silver Palms Park 2","locationDisplayName":"","slug":{"_type":"slug","current":"silver-palms-park-2"},"featured":false,"physicalAddress":{"_type":"object","address1":"11300 SW 240TH LN","address2":"","city":"Miami","state":"FL","zip":"33032"},"mduid":"loc1528203118548670","publicHours":{"_type":"object","monday":{"isOpen":false},"tuesday":{"isOpen":false},"wednesday":{"isOpen":false},"thursday":{"isOpen":false},"friday":{"isOpen":false},"saturday":{"isOpen":false},"sunday":{"isOpen":false},"notes":""},"geo":{"_type":"object","x":862493.774,"y":440355.086}}
{"_type":"location","_id":"loc1528203149116478","name":"Silver Palms Park 3","locationDisplayName":"","slug":{"_type":"slug","current":"silver-palms-park-3"},"featured":false,"physicalAddress":{"_type":"object","address1":"11306 SW 242ND ST","address2":"","city":"Miami","state":"FL","zip":"33032"},"mduid":"loc1528203149116478","publicHours":{"_type":"object","monday":{"isOpen":false},"tuesday":{"isOpen":false},"wednesday":{"isOpen":false},"thursday":{"isOpen":false},"friday":{"isOpen":false},"saturday":{"isOpen":false},"sunday":{"isOpen":false},"notes":""},"geo":{"_type":"object","x":862509.701,"y":439907.314}}
{"_type":"location","_id":"loc1528203181332322","name":"Silver Palms Park 4","locationDisplayName":"","slug":{"_type":"slug","current":"silver-palms-park-4"},"featured":false,"physicalAddress":{"_type":"object","address1":"24150 SW 114TH CT","address2":"","city":"Miami","state":"FL","zip":"33032"},"mduid":"loc1528203181332322","publicHours":{"_type":"object","monday":{"isOpen":false},"tuesday":{"isOpen":false},"wednesday":{"isOpen":false},"thursday":{"isOpen":false},"friday":{"isOpen":false},"saturday":{"isOpen":false},"sunday":{"isOpen":false},"notes":""},"geo":{"_type":"object","x":861704.694,"y":440050.201}}
{"_type":"location","_id":"loc1528203209460193","name":"Silver Palms Park 5","locationDisplayName":"","slug":{"_type":"slug","current":"silver-palms-park-5"},"featured":false,"physicalAddress":{"_type":"object","address1":"11741 SW 233RD LN","address2":"","city":"Miami","state":"FL","zip":"33032"},"mduid":"loc1528203209460193","publicHours":{"_type":"object","monday":{"isOpen":false},"tuesday":{"isOpen":false},"wednesday":{"isOpen":false},"thursday":{"isOpen":false},"friday":{"isOpen":false},"saturday":{"isOpen":false},"sunday":{"isOpen":false},"notes":""},"geo":{"_type":"object","x":860258.702,"y":442702.107}}
{"_type":"location","_id":"loc1528203238334504","name":"Silver Palms Park 6","locationDisplayName":"","slug":{"_type":"slug","current":"silver-palms-park-6"},"featured":false,"physicalAddress":{"_type":"object","address1":"23380 SW 118TH AVE","address2":"","city":"Miami","state":"FL","zip":"33032"},"mduid":"loc1528203238334504","publicHours":{"_type":"object","monday":{"isOpen":false},"tuesday":{"isOpen":false},"wednesday":{"isOpen":false},"thursday":{"isOpen":false},"friday":{"isOpen":false},"saturday":{"isOpen":false},"sunday":{"isOpen":false},"notes":""},"geo":{"_type":"object","x":859852.926,"y":442512.43}}
{"_type":"location","_id":"loc1528203266244841","name":"Silver Palms Park 7","locationDisplayName":"","slug":{"_type":"slug","current":"silver-palms-park-7"},"featured":false,"physicalAddress":{"_type":"object","address1":"23800 SW 118TH PL","address2":"","city":"Miami","state":"FL","zip":"33032"},"mduid":"loc1528203266244841","publicHours":{"_type":"object","monday":{"isOpen":false},"tuesday":{"isOpen":false},"wednesday":{"isOpen":false},"thursday":{"isOpen":false},"friday":{"isOpen":false},"saturday":{"isOpen":false},"sunday":{"isOpen":false},"notes":""},"geo":{"_type":"object","x":859375.683,"y":441257.69}}
{"_type":"location","_id":"loc1528203299318416","name":"Snake Creek Trail","locationDisplayName":"","slug":{"_type":"slug","current":"snake-creek-trail"},"featured":false,"physicalAddress":{"_type":"object","address1":"SIERRA PARK (NE 2ND AVE) to I-95","address2":"","city":"Miami","state":"FL","zip":"33179"},"mduid":"loc1528203299318416","publicHours":{"_type":"object","monday":{"isOpen":false},"tuesday":{"isOpen":false},"wednesday":{"isOpen":false},"thursday":{"isOpen":false},"friday":{"isOpen":false},"saturday":{"isOpen":false},"sunday":{"isOpen":false},"notes":""},"geo":{"_type":"object"}}
{"_type":"location","_id":"loc1528203350188490","name":"Snapper Creek Lake Parkway","locationDisplayName":"","slug":{"_type":"slug","current":"snapper-creek-lake-parkway"},"featured":false,"physicalAddress":{"_type":"object","address1":"SNAPPER CREEK RD / CORAL CREEK RD","address2":"","city":"Coral Gables","state":"FL","zip":"33156"},"mduid":"loc1528203350188490","publicHours":{"_type":"object","monday":{"isOpen":false},"tuesday":{"isOpen":false},"wednesday":{"isOpen":false},"thursday":{"isOpen":false},"friday":{"isOpen":false},"saturday":{"isOpen":false},"sunday":{"isOpen":false},"notes":""},"geo":{"_type":"object"}}
{"_type":"location","_id":"loc1528203382956726","name":"Snapper Creek Park","locationDisplayName":"","slug":{"_type":"slug","current":"snapper-creek-park"},"featured":false,"physicalAddress":{"_type":"object","address1":"10280 SW 80TH ST","address2":"","city":"Miami","state":"FL","zip":"33173"},"mduid":"loc1528203382956726","publicHours":{"_type":"object","monday":{"isOpen":false},"tuesday":{"isOpen":false},"wednesday":{"isOpen":false},"thursday":{"isOpen":false},"friday":{"isOpen":false},"saturday":{"isOpen":false},"sunday":{"isOpen":false},"notes":""},"geo":{"_type":"object"}}
{"_type":"location","_id":"loc1528203417724295","name":"Snapper Creek Trail","locationDisplayName":"","slug":{"_type":"slug","current":"snapper-creek-trail"},"featured":false,"physicalAddress":{"_type":"object","address1":"SW 117 AVE. FROM SW 16TH ST TO SW 107TH AVE","address2":"","city":"Miami","state":"FL","zip":"33173"},"mduid":"loc1528203417724295","publicHours":{"_type":"object","monday":{"isOpen":false},"tuesday":{"isOpen":false},"wednesday":{"isOpen":false},"thursday":{"isOpen":false},"friday":{"isOpen":false},"saturday":{"isOpen":false},"sunday":{"isOpen":false},"notes":""},"geo":{"_type":"object"}}
{"_type":"location","_id":"loc1464727881331780","name":"Snapper Creek Trash and Recycling Center","locationDisplayName":"","slug":{"_type":"slug","current":"snapper-creek-trash-and-recycling-center"},"featured":false,"physicalAddress":{"_type":"object","address1":"2200 SW 117 Avenue","address2":"","city":"Miami","state":"FL","zip":"33165"},"mduid":"loc1464727881331780","publicHours":{"_type":"object","monday":{"isOpen":false},"tuesday":{"isOpen":false},"wednesday":{"isOpen":false},"thursday":{"isOpen":false},"friday":{"isOpen":false},"saturday":{"isOpen":false},"sunday":{"isOpen":false},"notes":""},"geo":{"_type":"object","x":859048.187,"y":515011.481}}
{"_type":"location","_id":"loc1528203459956958","name":"Soar Park","locationDisplayName":"","slug":{"_type":"slug","current":"soar-park"},"featured":false,"physicalAddress":{"_type":"object","address1":"120 NW 83RD ST","address2":"","city":"Miami","state":"FL","zip":"33150"},"mduid":"loc1528203459956958","publicHours":{"_type":"object","monday":{"isOpen":false},"tuesday":{"isOpen":false},"wednesday":{"isOpen":false},"thursday":{"isOpen":false},"friday":{"isOpen":false},"saturday":{"isOpen":false},"sunday":{"isOpen":false},"notes":""},"geo":{"_type":"object","x":919345.631,"y":552248.815}}
{"_type":"location","_id":"loc1503690690096222","name":"South Beach Community Resource Center","locationDisplayName":"","slug":{"_type":"slug","current":"south-beach-community-resource-center"},"featured":false,"physicalAddress":{"_type":"object","address1":"833 Sixth Street","address2":"","city":"Miami Beach","state":"FL","zip":"33139"},"mduid":"loc1503690690096222","publicHours":{"_type":"object","monday":{"isOpen":false},"tuesday":{"isOpen":false},"wednesday":{"isOpen":false},"thursday":{"isOpen":false},"friday":{"isOpen":false},"saturday":{"isOpen":false},"sunday":{"isOpen":false},"notes":""},"geo":{"_type":"object","x":940194.8650494283,"y":525245.6372702523}}
{"_type":"location","_id":"loc1496427587652789","name":"South Dade Adult Day Care Centeer","locationDisplayName":"","slug":{"_type":"slug","current":"south-dade-adult-day-care-center"},"featured":false,"physicalAddress":{"_type":"object","address1":"19590 Old Cutler Road","address2":"","city":"Cutler Bay","state":"FL","zip":"33157"},"mduid":"loc1496427587652789","publicHours":{"_type":"object","monday":{"isOpen":false},"tuesday":{"isOpen":false},"wednesday":{"isOpen":false},"thursday":{"isOpen":false},"friday":{"isOpen":false},"saturday":{"isOpen":false},"sunday":{"isOpen":false},"notes":""},"geo":{"_type":"object","x":878262.219,"y":455945.559}}
{"_type":"location","_id":"loc1471273232565600","name":"South Dade Government Center","locationDisplayName":"","slug":{"_type":"slug","current":"south-dade-government-center"},"featured":false,"physicalAddress":{"_type":"object","address1":"10710 SW 211 Street","address2":"","city":"Cutler Bay","state":"FL","zip":"33189"},"mduid":"loc1471273232565600","publicHours":{"_type":"object","monday":{"isOpen":false},"tuesday":{"isOpen":false},"wednesday":{"isOpen":false},"thursday":{"isOpen":false},"friday":{"isOpen":false},"saturday":{"isOpen":false},"sunday":{"isOpen":false},"notes":""},"geo":{"_type":"object","x":865501.906,"y":450403.573}}
{"_type":"location","_id":"loc1464789846563938","name":"South Dade Home Chemical Collection Center","locationDisplayName":"","slug":{"_type":"slug","current":"south-dade-home-chemical-collection-center"},"featured":false,"physicalAddress":{"_type":"object","address1":"23707 SW 97 Avenue","address2":"Gate-B","city":"Homestead","state":"FL","zip":"33032"},"mduid":"loc1464789846563938","publicHours":{"_type":"object","monday":{"isOpen":false},"tuesday":{"isOpen":false},"wednesday":{"isOpen":false},"thursday":{"isOpen":false},"friday":{"isOpen":false},"saturday":{"isOpen":false},"sunday":{"isOpen":false},"notes":""},"geo":{"_type":"object","x":871357.883,"y":441400.314}}
{"_type":"location","_id":"loc14999543014926","name":"South Dade Justice Center","locationDisplayName":"","slug":{"_type":"slug","current":"south-dade-justice-center"},"featured":false,"physicalAddress":{"_type":"object","address1":"10710 SW 211 Street","address2":"","city":"Cutler Bay","state":"FL","zip":"33189"},"mduid":"loc14999543014926","publicHours":{"_type":"object","monday":{"isOpen":false},"tuesday":{"isOpen":false},"wednesday":{"isOpen":false},"thursday":{"isOpen":false},"friday":{"isOpen":false},"saturday":{"isOpen":false},"sunday":{"isOpen":false},"notes":""},"geo":{"_type":"object","x":865501.906,"y":450403.573}}
{"_type":"location","_id":"loc146479010262377","name":"South Dade Landfill","locationDisplayName":"","slug":{"_type":"slug","current":"south-dade-landfill"},"featured":false,"physicalAddress":{"_type":"object","address1":"23707 SW 97 Avenue","address2":"Gate A","city":"Homestead","state":"FL","zip":"33032"},"mduid":"loc146479010262377","publicHours":{"_type":"object","monday":{"isOpen":false},"tuesday":{"isOpen":false},"wednesday":{"isOpen":false},"thursday":{"isOpen":false},"friday":{"isOpen":false},"saturday":{"isOpen":false},"sunday":{"isOpen":false},"notes":""},"geo":{"_type":"object","x":871357.883,"y":441400.314}}
{"_type":"location","_id":"loc1528203490364845","name":"South Dade Park","locationDisplayName":"","slug":{"_type":"slug","current":"south-dade-park"},"featured":false,"physicalAddress":{"_type":"object","address1":"16350 SW 280TH ST","address2":"","city":"Miami","state":"FL","zip":"33033"},"mduid":"loc1528203490364845","publicHours":{"_type":"object","monday":{"isOpen":false},"tuesday":{"isOpen":false},"wednesday":{"isOpen":false},"thursday":{"isOpen":false},"friday":{"isOpen":false},"saturday":{"isOpen":false},"sunday":{"isOpen":false},"notes":""},"geo":{"_type":"object","x":835636.704,"y":426578.124}}
{"_type":"location","_id":"loc1495484663667290","name":"South Dade Skills Center","locationDisplayName":"","slug":{"_type":"slug","current":"south-dade-skills-center"},"featured":false,"physicalAddress":{"_type":"object","address1":"28300 SW 152nd Avenue","address2":"","city":"Homestead","state":"FL","zip":"33033"},"mduid":"loc1495484663667290","publicHours":{"_type":"object","monday":{"isOpen":false},"tuesday":{"isOpen":false},"wednesday":{"isOpen":false},"thursday":{"isOpen":false},"friday":{"isOpen":false},"saturday":{"isOpen":false},"sunday":{"isOpen":false},"notes":""},"geo":{"_type":"object","x":841746.103,"y":425686.854}}
{"_type":"location","_id":"loc1528203526380827","name":"South DadeTrail Rest Stop","locationDisplayName":"","slug":{"_type":"slug","current":"south-dadetrail-rest-stop"},"featured":false,"physicalAddress":{"_type":"object","address1":"7975 SW 112TH ST","address2":"","city":"Miami","state":"FL","zip":"33176"},"mduid":"loc1528203526380827","publicHours":{"_type":"object","monday":{"isOpen":false},"tuesday":{"isOpen":false},"wednesday":{"isOpen":false},"thursday":{"isOpen":false},"friday":{"isOpen":false},"saturday":{"isOpen":false},"sunday":{"isOpen":false},"notes":""},"geo":{"_type":"object"}}
{"_type":"location","_id":"loc1496164748818393","name":"South District Police Station","locationDisplayName":"","slug":{"_type":"slug","current":"south-district-police-station"},"featured":false,"physicalAddress":{"_type":"object","address1":"10800 SW 211th Street","address2":"","city":"Miami","state":"FL","zip":"33189-2899"},"mduid":"loc1496164748818393","publicHours":{"_type":"object","monday":{"isOpen":false},"tuesday":{"isOpen":false},"wednesday":{"isOpen":false},"thursday":{"isOpen":false},"friday":{"isOpen":false},"saturday":{"isOpen":false},"sunday":{"isOpen":false},"notes":"Phone: 305-378-4300\nFax: 305-232-2918"},"geo":{"_type":"object","x":864985.435,"y":450272.986}}
{"_type":"location","_id":"loc1528203563652613","name":"South Miami Heights Park","locationDisplayName":"","slug":{"_type":"slug","current":"south-miami-heights-park"},"featured":false,"physicalAddress":{"_type":"object","address1":"20800 SW 117TH AVE","address2":"","city":"Miami","state":"FL","zip":"33177"},"mduid":"loc1528203563652613","publicHours":{"_type":"object","monday":{"isOpen":false},"tuesday":{"isOpen":false},"wednesday":{"isOpen":false},"thursday":{"isOpen":false},"friday":{"isOpen":false},"saturday":{"isOpen":false},"sunday":{"isOpen":false},"notes":""},"geo":{"_type":"object","x":861094.779,"y":451078.486}}
{"_type":"location","_id":"loc146472876596223","name":"South Miami Heights Trash and Recycling Center","locationDisplayName":"","slug":{"_type":"slug","current":"south-miami-heights-trash-and-recycling-center"},"featured":false,"physicalAddress":{"_type":"object","address1":"20800 SW 117 Court","address2":"","city":"Miami","state":"FL","zip":"33177"},"mduid":"loc146472876596223","publicHours":{"_type":"object","monday":{"isOpen":false},"tuesday":{"isOpen":false},"wednesday":{"isOpen":false},"thursday":{"isOpen":false},"friday":{"isOpen":false},"saturday":{"isOpen":false},"sunday":{"isOpen":false},"notes":""},"geo":{"_type":"object","x":860532.287,"y":451013.437}}
{"_type":"location","_id":"loc1471449349523410","name":"South Miami Parking Garage","locationDisplayName":"South Miami Parking Metrorail Garage","slug":{"_type":"slug","current":"south-miami-parking-garage"},"featured":false,"physicalAddress":{"_type":"object","address1":"5949 Sunset Drive","address2":"","city":"South Miami","state":"FL","zip":"33143"},"mduid":"loc1471449349523410","publicHours":{"_type":"object","monday":{"isOpen":false},"tuesday":{"isOpen":false},"wednesday":{"isOpen":false},"thursday":{"isOpen":false},"friday":{"isOpen":false},"saturday":{"isOpen":false},"sunday":{"isOpen":false},"notes":""},"geo":{"_type":"object","x":889825.203,"y":498858.796}}
{"_type":"location","_id":"loc1528203598628176","name":"Southern Estates Park","locationDisplayName":"","slug":{"_type":"slug","current":"southern-estates-park"},"featured":false,"physicalAddress":{"_type":"object","address1":"12199 SW 34TH ST","address2":"","city":"Miami","state":"FL","zip":"33175"},"mduid":"loc1528203598628176","publicHours":{"_type":"object","monday":{"isOpen":false},"tuesday":{"isOpen":false},"wednesday":{"isOpen":false},"thursday":{"isOpen":false},"friday":{"isOpen":false},"saturday":{"isOpen":false},"sunday":{"isOpen":false},"notes":""},"geo":{"_type":"object","x":857039.017,"y":510860.871}}
{"_type":"location","_id":"loc152820363139653","name":"Southridge Park","locationDisplayName":"","slug":{"_type":"slug","current":"southridge-park"},"featured":false,"physicalAddress":{"_type":"object","address1":"11250 SW 192ND ST","address2":"","city":"Miami","state":"FL","zip":"33157"},"mduid":"loc152820363139653","publicHours":{"_type":"object","monday":{"isOpen":false},"tuesday":{"isOpen":false},"wednesday":{"isOpen":false},"thursday":{"isOpen":false},"friday":{"isOpen":false},"saturday":{"isOpen":false},"sunday":{"isOpen":false},"notes":""},"geo":{"_type":"object","x":862796.136,"y":456452.176}}
{"_type":"location","_id":"loc1528203666108998","name":"Spanish Lake","locationDisplayName":"","slug":{"_type":"slug","current":"spanish-lake"},"featured":false,"physicalAddress":{"_type":"object","address1":"19405 NW 82ND AVE","address2":"","city":"Miami","state":"FL","zip":"33015"},"mduid":"loc1528203666108998","publicHours":{"_type":"object","monday":{"isOpen":false},"tuesday":{"isOpen":false},"wednesday":{"isOpen":false},"thursday":{"isOpen":false},"friday":{"isOpen":false},"saturday":{"isOpen":false},"sunday":{"isOpen":false},"notes":""},"geo":{"_type":"object","x":874818.205,"y":587952.636}}
{"_type":"location","_id":"loc1454454181420459","name":"Stephen P. Clark Center","locationDisplayName":"","slug":{"_type":"slug","current":"stephen-p-clark-center"},"featured":true,"physicalAddress":{"_type":"object","address1":"111 NW 1st Street","address2":"","city":"Miami","state":"FL","zip":"33128"},"mduid":"loc1454454181420459","publicHours":{"_type":"object","monday":{"isOpen":false},"tuesday":{"isOpen":false},"wednesday":{"isOpen":false},"thursday":{"isOpen":false},"friday":{"isOpen":false},"saturday":{"isOpen":false},"sunday":{"isOpen":false},"notes":"Excluding county observed holidays."},"geo":{"_type":"object","x":920433.624,"y":525114.812}}
{"_type":"location","_id":"loc1528203710766591","name":"Sudlow Park","locationDisplayName":"","slug":{"_type":"slug","current":"sudlow-park"},"featured":false,"physicalAddress":{"_type":"object","address1":"7281 SW 72ND ST","address2":"","city":"Miami","state":"FL","zip":"33143"},"mduid":"loc1528203710766591","publicHours":{"_type":"object","monday":{"isOpen":false},"tuesday":{"isOpen":false},"wednesday":{"isOpen":false},"thursday":{"isOpen":false},"friday":{"isOpen":false},"saturday":{"isOpen":false},"sunday":{"isOpen":false},"notes":""},"geo":{"_type":"object","x":883097.6,"y":498463.267}}
{"_type":"location","_id":"loc1528203743180488","name":"Sugarwood Park","locationDisplayName":"","slug":{"_type":"slug","current":"sugarwood-park"},"featured":false,"physicalAddress":{"_type":"object","address1":"14551 SW 100TH ST","address2":"","city":"Miami","state":"FL","zip":"33186"},"mduid":"loc1528203743180488","publicHours":{"_type":"object","monday":{"isOpen":false},"tuesday":{"isOpen":false},"wednesday":{"isOpen":false},"thursday":{"isOpen":false},"friday":{"isOpen":false},"saturday":{"isOpen":false},"sunday":{"isOpen":false},"notes":""},"geo":{"_type":"object","x":843982.695,"y":487439.56}}
{"_type":"location","_id":"loc1528203776702825","name":"Sun Lakes Park","locationDisplayName":"","slug":{"_type":"slug","current":"sun-lakes-park"},"featured":false,"physicalAddress":{"_type":"object","address1":"SW 167TH AVE / SW 78TH ST","address2":"","city":"Miami","state":"FL","zip":"33193"},"mduid":"loc1528203776702825","publicHours":{"_type":"object","monday":{"isOpen":false},"tuesday":{"isOpen":false},"wednesday":{"isOpen":false},"thursday":{"isOpen":false},"friday":{"isOpen":false},"saturday":{"isOpen":false},"sunday":{"isOpen":false},"notes":""},"geo":{"_type":"object","x":833227.623,"y":494467.935}}
{"_type":"location","_id":"loc1528203811780701","name":"Sunkist Park","locationDisplayName":"","slug":{"_type":"slug","current":"sunkist-park"},"featured":false,"physicalAddress":{"_type":"object","address1":"8401 SW 64TH ST","address2":"","city":"Miami","state":"FL","zip":"33143"},"mduid":"loc1528203811780701","publicHours":{"_type":"object","monday":{"isOpen":false},"tuesday":{"isOpen":false},"wednesday":{"isOpen":false},"thursday":{"isOpen":false},"friday":{"isOpen":false},"saturday":{"isOpen":false},"sunday":{"isOpen":false},"notes":""},"geo":{"_type":"object"}}
{"_type":"location","_id":"loc1528203864260453","name":"Sunny Isles Beach","locationDisplayName":"","slug":{"_type":"slug","current":"sunny-isles-beach"},"featured":false,"physicalAddress":{"_type":"object","address1":"FROM N. END OF HAULOVER TO 195 ST","address2":"","city":"SUNNY ISLES BEACH","state":"FL","zip":"33160"},"mduid":"loc1528203864260453","publicHours":{"_type":"object","monday":{"isOpen":false},"tuesday":{"isOpen":false},"wednesday":{"isOpen":false},"thursday":{"isOpen":false},"friday":{"isOpen":false},"saturday":{"isOpen":false},"sunday":{"isOpen":false},"notes":""},"geo":{"_type":"object"}}
{"_type":"location","_id":"loc1528203916756576","name":"Sunset Heights Park","locationDisplayName":"","slug":{"_type":"slug","current":"sunset-heights-park"},"featured":false,"physicalAddress":{"_type":"object","address1":"960 SW 73RD CT","address2":"","city":"Miami","state":"FL","zip":"33144"},"mduid":"loc1528203916756576","publicHours":{"_type":"object","monday":{"isOpen":false},"tuesday":{"isOpen":false},"wednesday":{"isOpen":false},"thursday":{"isOpen":false},"friday":{"isOpen":false},"saturday":{"isOpen":false},"sunday":{"isOpen":false},"notes":""},"geo":{"_type":"object","x":881856.711,"y":519430.259}}
{"_type":"location","_id":"loc146472884743184","name":"Sunset Kendall Trash and Recycling Center","locationDisplayName":"","slug":{"_type":"slug","current":"sunset-kendall-trash-and-recycling-center"},"featured":false,"physicalAddress":{"_type":"object","address1":"8000 SW 107 Avenue","address2":"","city":"Miami","state":"FL","zip":"33173"},"mduid":"loc146472884743184","publicHours":{"_type":"object","monday":{"isOpen":false},"tuesday":{"isOpen":false},"wednesday":{"isOpen":false},"thursday":{"isOpen":false},"friday":{"isOpen":false},"saturday":{"isOpen":false},"sunday":{"isOpen":false},"notes":""},"geo":{"_type":"object","x":863778.736,"y":495060.421}}
{"_type":"location","_id":"loc1528203959276909","name":"Sunset Park","locationDisplayName":"","slug":{"_type":"slug","current":"sunset-park"},"featured":false,"physicalAddress":{"_type":"object","address1":"7321 SW 97TH AVE","address2":"","city":"Miami","state":"FL","zip":"33173"},"mduid":"loc1528203959276909","publicHours":{"_type":"object","monday":{"isOpen":false},"tuesday":{"isOpen":false},"wednesday":{"isOpen":false},"thursday":{"isOpen":false},"friday":{"isOpen":false},"saturday":{"isOpen":false},"sunday":{"isOpen":false},"notes":""},"geo":{"_type":"object","x":870412.56,"y":497282.623}}
{"_type":"location","_id":"loc1528204002724692","name":"Surfside Beach","locationDisplayName":"","slug":{"_type":"slug","current":"surfside-beach"},"featured":false,"physicalAddress":{"_type":"object","address1":"92ND ST / COLLINS AVE","address2":"","city":"SURFSIDE","state":"FL","zip":"33154"},"mduid":"loc1528204002724692","publicHours":{"_type":"object","monday":{"isOpen":false},"tuesday":{"isOpen":false},"wednesday":{"isOpen":false},"thursday":{"isOpen":false},"friday":{"isOpen":false},"saturday":{"isOpen":false},"sunday":{"isOpen":false},"notes":""},"geo":{"_type":"object","x":944824.371,"y":562990.436}}
{"_type":"location","_id":"loc1528204149708682","name":"Tamiami Canal Park","locationDisplayName":"","slug":{"_type":"slug","current":"tamiami-canal-park"},"featured":false,"physicalAddress":{"_type":"object","address1":"Section: SW 122ND AVE to SW 119TH AVE SFWMD ROW","address2":"","city":"Miami","state":"FL","zip":"33184"},"mduid":"loc1528204149708682","publicHours":{"_type":"object","monday":{"isOpen":false},"tuesday":{"isOpen":false},"wednesday":{"isOpen":false},"thursday":{"isOpen":false},"friday":{"isOpen":false},"saturday":{"isOpen":false},"sunday":{"isOpen":false},"notes":""},"geo":{"_type":"object"}}
{"_type":"location","_id":"loc1528204188036775","name":"Tamiami Lakes Park","locationDisplayName":"","slug":{"_type":"slug","current":"tamiami-lakes-park"},"featured":false,"physicalAddress":{"_type":"object","address1":"13220 SW 18TH ST","address2":"","city":"Miami","state":"FL","zip":"33175"},"mduid":"loc1528204188036775","publicHours":{"_type":"object","monday":{"isOpen":false},"tuesday":{"isOpen":false},"wednesday":{"isOpen":false},"thursday":{"isOpen":false},"friday":{"isOpen":false},"saturday":{"isOpen":false},"sunday":{"isOpen":false},"notes":""},"geo":{"_type":"object","x":850113.321,"y":515593.367}}
{"_type":"location","_id":"loc14507109726432","name":"Tamiami Park","locationDisplayName":"","slug":{"_type":"slug","current":"tamiami-park"},"featured":false,"physicalAddress":{"_type":"object","address1":"11201 SW 24th St","address2":"","city":"Miami","state":"FL","zip":"33165"},"mduid":"loc14507109726432","geo":{"_type":"object","x":860691.061,"y":515347.53}}
{"_type":"location","_id":"loc1528204223820514","name":"Tamiami Trail Park (North)","locationDisplayName":"","slug":{"_type":"slug","current":"tamiami-trail-park-north"},"featured":false,"physicalAddress":{"_type":"object","address1":"12760 SW 6TH ST","address2":"","city":"Miami","state":"FL","zip":"33184"},"mduid":"loc1528204223820514","publicHours":{"_type":"object","monday":{"isOpen":false},"tuesday":{"isOpen":false},"wednesday":{"isOpen":false},"thursday":{"isOpen":false},"friday":{"isOpen":false},"saturday":{"isOpen":false},"sunday":{"isOpen":false},"notes":""},"geo":{"_type":"object"}}
{"_type":"location","_id":"loc1454451320679521","name":"Office of the Tax Collector","locationDisplayName":"","slug":{"_type":"slug","current":"tax-collector"},"featured":false,"physicalAddress":{"_type":"object","address1":"200 NW 2nd Avenue","address2":"","city":"Miami","state":"FL","zip":"33128"},"mduid":"loc1454451320679521","publicHours":{"_type":"object","monday":{"isOpen":false},"tuesday":{"isOpen":false},"wednesday":{"isOpen":false},"thursday":{"isOpen":false},"friday":{"isOpen":false},"saturday":{"isOpen":false},"sunday":{"isOpen":false},"notes":""},"geo":{"_type":"object","x":920063.7264745398,"y":525295.0809303785}}
{"_type":"location","_id":"loc1464357987944677","name":"testing","locationDisplayName":"Testing","slug":{"_type":"slug","current":"testing-location"},"featured":false,"physicalAddress":{"_type":"object","address1":"111 nw 2 st","address2":"","city":"miami","state":"FL","zip":"33128"},"mduid":"loc1464357987944677","geo":{"_type":"object","x":920983.4,"y":525117.024}}
{"_type":"location","_id":"loc1464288783784952","name":"testot","locationDisplayName":"testot","slug":{"_type":"slug","current":"testot"},"featured":false,"physicalAddress":{"_type":"object","address1":"testing","address2":"","city":"Miami","state":"FL","zip":"33147"},"mduid":"loc1464288783784952","geo":{"_type":"object","x":903718.764,"y":555567.778}}
{"_type":"location","_id":"loc1528204254482716","name":"The Womens Park","locationDisplayName":"","slug":{"_type":"slug","current":"the-womens-park"},"featured":false,"physicalAddress":{"_type":"object","address1":"10251 W FLAGLER ST","address2":"","city":"Miami","state":"FL","zip":"33172"},"mduid":"loc1528204254482716","publicHours":{"_type":"object","monday":{"isOpen":false},"tuesday":{"isOpen":false},"wednesday":{"isOpen":false},"thursday":{"isOpen":false},"friday":{"isOpen":false},"saturday":{"isOpen":false},"sunday":{"isOpen":false},"notes":""},"geo":{"_type":"object"}}
{"_type":"location","_id":"loc152820429242054","name":"Three Lakes Park","locationDisplayName":"","slug":{"_type":"slug","current":"three-lakes-park"},"featured":false,"physicalAddress":{"_type":"object","address1":"13375 SW 136TH ST","address2":"","city":"Miami","state":"FL","zip":"33186"},"mduid":"loc152820429242054","publicHours":{"_type":"object","monday":{"isOpen":false},"tuesday":{"isOpen":false},"wednesday":{"isOpen":false},"thursday":{"isOpen":false},"friday":{"isOpen":false},"saturday":{"isOpen":false},"sunday":{"isOpen":false},"notes":""},"geo":{"_type":"object","x":850470.746,"y":476693.489}}
{"_type":"location","_id":"loc1528204327938292","name":"Trail Glades Range","locationDisplayName":"","slug":{"_type":"slug","current":"trail-glades-range"},"featured":false,"physicalAddress":{"_type":"object","address1":"17601 SW 8TH ST","address2":"","city":"Miami","state":"FL","zip":"33192"},"mduid":"loc1528204327938292","publicHours":{"_type":"object","monday":{"isOpen":false},"tuesday":{"isOpen":false},"wednesday":{"isOpen":false},"thursday":{"isOpen":false},"friday":{"isOpen":false},"saturday":{"isOpen":false},"sunday":{"isOpen":false},"notes":""},"geo":{"_type":"object"}}
{"_type":"location","_id":"loc1465938225866350","name":"Training and Treatment Center","locationDisplayName":"","slug":{"_type":"slug","current":"training-and-treatment-center"},"featured":false,"physicalAddress":{"_type":"object","address1":"6950 NW 41st St","address2":"","city":"Miami","state":"FL","zip":"33166"},"mduid":"loc1465938225866350","publicHours":{"_type":"object","monday":{"isOpen":false},"tuesday":{"isOpen":false},"wednesday":{"isOpen":false},"thursday":{"isOpen":false},"friday":{"isOpen":false},"saturday":{"isOpen":false},"sunday":{"isOpen":false},"notes":"Inmate visitation for A, B, C & F Blocks is from 9 - 11 a.m., with last names A- L on Saturday and M - Z on Sunday. For Units 1 - 6, inmate visitation is from 4:30 - 5:30 p.m."},"geo":{"_type":"object","x":883197.828,"y":537738.16}}
{"_type":"location","_id":"loc1528204366658290","name":"Tree Island Park & Preserve","locationDisplayName":"","slug":{"_type":"slug","current":"tree-island-park-preserve"},"featured":false,"physicalAddress":{"_type":"object","address1":"14800 SW 10th ST","address2":"","city":"Miami","state":"FL","zip":"33185"},"mduid":"loc1528204366658290","publicHours":{"_type":"object","monday":{"isOpen":false},"tuesday":{"isOpen":false},"wednesday":{"isOpen":false},"thursday":{"isOpen":false},"friday":{"isOpen":false},"saturday":{"isOpen":false},"sunday":{"isOpen":false},"notes":""},"geo":{"_type":"object"}}
{"_type":"location","_id":"loc152820441222676","name":"Tropical Estates Park","locationDisplayName":"","slug":{"_type":"slug","current":"tropical-estates-park"},"featured":false,"physicalAddress":{"_type":"object","address1":"10201 SW 48TH ST","address2":"","city":"Miami","state":"FL","zip":"33165"},"mduid":"loc152820441222676","publicHours":{"_type":"object","monday":{"isOpen":false},"tuesday":{"isOpen":false},"wednesday":{"isOpen":false},"thursday":{"isOpen":false},"friday":{"isOpen":false},"saturday":{"isOpen":false},"sunday":{"isOpen":false},"notes":""},"geo":{"_type":"object"}}
{"_type":"location","_id":"loc1450711513603885","name":"Tropical Park","locationDisplayName":"","slug":{"_type":"slug","current":"tropical-park"},"featured":true,"physicalAddress":{"_type":"object","address1":"7900 SW 40th Street","address2":"","city":"Miami","state":"FL","zip":"33155"},"mduid":"loc1450711513603885","publicHours":{"_type":"object","monday":{"isOpen":false},"tuesday":{"isOpen":false},"wednesday":{"isOpen":false},"thursday":{"isOpen":false},"friday":{"isOpen":false},"saturday":{"isOpen":false},"sunday":{"isOpen":false},"notes":"Office Hours: 8:00 a.m. - 5:00 p.m. Monday-Friday\nRental Office Hours: 9:00 a.m. - 6:00 p.m. Monday-Sunday"},"geo":{"_type":"object","x":878533.182,"y":509050.132}}
{"_type":"location","_id":"loc1465938352757892","name":"Turner Guilford Knight Correctional Center","locationDisplayName":"","slug":{"_type":"slug","current":"turner-guilford-knight-correctional-center"},"featured":false,"physicalAddress":{"_type":"object","address1":"7000 NW 41st St","address2":"","city":"Miami","state":"FL","zip":"33166"},"mduid":"loc1465938352757892","publicHours":{"_type":"object","monday":{"isOpen":false},"tuesday":{"isOpen":false},"wednesday":{"isOpen":false},"thursday":{"isOpen":false},"friday":{"isOpen":false},"saturday":{"isOpen":false},"sunday":{"isOpen":false},"notes":""},"geo":{"_type":"object","x":882881.785,"y":537638.616}}
{"_type":"location","_id":"loc1660235870269981","name":"Vehicle Inspection Station","locationDisplayName":"Vehicle Inspection Station","slug":{"_type":"slug","current":"vehicle-inspection-station"},"featured":false,"physicalAddress":{"_type":"object","address1":"2615 NW 10 Avenue","address2":"","city":"Miami","state":"FL","zip":"33127"},"mduid":"loc1660235870269981","publicHours":{"_type":"object","monday":{"isOpen":false},"tuesday":{"isOpen":false},"wednesday":{"isOpen":false},"thursday":{"isOpen":false},"friday":{"isOpen":false},"saturday":{"isOpen":false},"sunday":{"isOpen":false},"notes":""},"geo":{"_type":"object","x":915745.2561042486,"y":534301.945507803}}
{"_type":"location","_id":"loc1528204493780538","name":"Virginia Key","locationDisplayName":"","slug":{"_type":"slug","current":"virginia-key"},"featured":false,"physicalAddress":{"_type":"object","address1":"3400 RICKENBACKER CSWY","address2":"","city":"Miami","state":"FL","zip":"33149"},"mduid":"loc1528204493780538","publicHours":{"_type":"object","monday":{"isOpen":false},"tuesday":{"isOpen":false},"wednesday":{"isOpen":false},"thursday":{"isOpen":false},"friday":{"isOpen":false},"saturday":{"isOpen":false},"sunday":{"isOpen":false},"notes":""},"geo":{"_type":"object","x":927897.336,"y":513656.631}}
{"_type":"location","_id":"loc1477082726214594","name":"Vizcaya","locationDisplayName":"Vizcaya Museum and Gardens","slug":{"_type":"slug","current":"vizcaya"},"featured":false,"physicalAddress":{"_type":"object","address1":"3251 South Miami Avenue","address2":"","city":"Miami","state":"FL","zip":"33129"},"mduid":"loc1477082726214594","publicHours":{"_type":"object","monday":{"isOpen":false},"tuesday":{"isOpen":false},"wednesday":{"isOpen":false},"thursday":{"isOpen":false},"friday":{"isOpen":false},"saturday":{"isOpen":false},"sunday":{"isOpen":false},"notes":""},"geo":{"_type":"object","x":915955.845,"y":514549.211}}
{"_type":"location","_id":"loc1528204539282601","name":"Walter A.White Park","locationDisplayName":"","slug":{"_type":"slug","current":"walter-awhite-park"},"featured":false,"physicalAddress":{"_type":"object","address1":"10804 PERRY DR","address2":"","city":"Miami","state":"FL","zip":"33176"},"mduid":"loc1528204539282601","publicHours":{"_type":"object","monday":{"isOpen":false},"tuesday":{"isOpen":false},"wednesday":{"isOpen":false},"thursday":{"isOpen":false},"friday":{"isOpen":false},"saturday":{"isOpen":false},"sunday":{"isOpen":false},"notes":""},"geo":{"_type":"object","x":864031.482,"y":473483.948}}
{"_type":"location","_id":"loc146248540340065","name":"Water and Sewer Douglas Office","locationDisplayName":"Water and Sewer Douglas Office","slug":{"_type":"slug","current":"water-and-sewer"},"featured":false,"physicalAddress":{"_type":"object","address1":"3071 SW 38th Ave","address2":"","city":"Miami","state":"FL","zip":"33146"},"mduid":"loc146248540340065","publicHours":{"_type":"object","monday":{"isOpen":false},"tuesday":{"isOpen":false},"wednesday":{"isOpen":false},"thursday":{"isOpen":false},"friday":{"isOpen":false},"saturday":{"isOpen":false},"sunday":{"isOpen":false},"notes":""},"geo":{"_type":"object","x":901302.936,"y":509422.092}}
{"_type":"location","_id":"loc1483976726836199","name":"Water Distribution Yard","locationDisplayName":"Water Distribution Yard","slug":{"_type":"slug","current":"water-distribution-yard"},"featured":false,"physicalAddress":{"_type":"object","address1":"1001 NW 11 Street","address2":"","city":"Miami","state":"FL","zip":"33136"},"mduid":"loc1483976726836199","publicHours":{"_type":"object","monday":{"isOpen":false},"tuesday":{"isOpen":false},"wednesday":{"isOpen":false},"thursday":{"isOpen":false},"friday":{"isOpen":false},"saturday":{"isOpen":false},"sunday":{"isOpen":false},"notes":""},"geo":{"_type":"object","x":915436.291,"y":528134.215}}
{"_type":"location","_id":"loc1494359364818425","name":"Water and Sewer LeJeune Office","locationDisplayName":"Water and Sewer LeJeune Office","slug":{"_type":"slug","current":"water-lejeune-office"},"featured":false,"physicalAddress":{"_type":"object","address1":"3575 S. LeJeune Road","address2":"","city":"Miami","state":"FL","zip":"33133"},"mduid":"loc1494359364818425","publicHours":{"_type":"object","monday":{"isOpen":false},"tuesday":{"isOpen":false},"wednesday":{"isOpen":false},"thursday":{"isOpen":false},"friday":{"isOpen":false},"saturday":{"isOpen":false},"sunday":{"isOpen":false},"notes":""},"geo":{"_type":"object","x":899510.208,"y":506199.183}}
{"_type":"location","_id":"loc1528204646266352","name":"Water Oaks Park","locationDisplayName":"","slug":{"_type":"slug","current":"water-oaks-park"},"featured":false,"physicalAddress":{"_type":"object","address1":"9100 HAMMOCKS BLVD","address2":"","city":"Miami","state":"FL","zip":"33196"},"mduid":"loc1528204646266352","publicHours":{"_type":"object","monday":{"isOpen":false},"tuesday":{"isOpen":false},"wednesday":{"isOpen":false},"thursday":{"isOpen":false},"friday":{"isOpen":false},"saturday":{"isOpen":false},"sunday":{"isOpen":false},"notes":""},"geo":{"_type":"object","x":841896.164,"y":489919.389}}
{"_type":"location","_id":"loc1496427678135460","name":"West Dade Adult Day Care Center","locationDisplayName":"","slug":{"_type":"slug","current":"west-dade-adult-day-care-center"},"featured":false,"physicalAddress":{"_type":"object","address1":"6950 N. Waterway Drive","address2":"","city":"Miami","state":"FL","zip":"33155"},"mduid":"loc1496427678135460","publicHours":{"_type":"object","monday":{"isOpen":false},"tuesday":{"isOpen":false},"wednesday":{"isOpen":false},"thursday":{"isOpen":false},"friday":{"isOpen":false},"saturday":{"isOpen":false},"sunday":{"isOpen":false},"notes":""},"geo":{"_type":"object","x":883862.5,"y":511848.328}}
{"_type":"location","_id":"loc1464799166246653","name":"West Dade Home Chemical Collection Center","locationDisplayName":"","slug":{"_type":"slug","current":"west-dade-home-chemical-collection-center"},"featured":false,"physicalAddress":{"_type":"object","address1":"8801 NW 58 Street","address2":"","city":"Doral","state":"FL","zip":"33178"},"mduid":"loc1464799166246653","publicHours":{"_type":"object","monday":{"isOpen":false},"tuesday":{"isOpen":false},"wednesday":{"isOpen":false},"thursday":{"isOpen":false},"friday":{"isOpen":false},"saturday":{"isOpen":false},"sunday":{"isOpen":false},"notes":""},"geo":{"_type":"object"}}
{"_type":"location","_id":"loc1455814053247124","name":"West Dade Pet-Friendly Evacuation Center","locationDisplayName":"","slug":{"_type":"slug","current":"west-dade-pet-friendly-evacuation-center"},"featured":false,"physicalAddress":{"_type":"object","address1":"E. Darwin Fuchs Pavilion","address2":"10901 SW 24th Street","city":"Miami","state":"FL","zip":"33165"},"mduid":"loc1455814053247124","geo":{"_type":"object"}}
{"_type":"location","_id":"loc1528204676562808","name":"West Kendale Lakes Park","locationDisplayName":"","slug":{"_type":"slug","current":"west-kendale-lakes-park"},"featured":false,"physicalAddress":{"_type":"object","address1":"6400 KENDALE LAKES DR","address2":"","city":"Miami","state":"FL","zip":"33183"},"mduid":"loc1528204676562808","publicHours":{"_type":"object","monday":{"isOpen":false},"tuesday":{"isOpen":false},"wednesday":{"isOpen":false},"thursday":{"isOpen":false},"friday":{"isOpen":false},"saturday":{"isOpen":false},"sunday":{"isOpen":false},"notes":""},"geo":{"_type":"object","x":843926.876,"y":499497.154}}
{"_type":"location","_id":"loc15282047086748","name":"West Kendall District Park","locationDisplayName":"","slug":{"_type":"slug","current":"west-kendall-district-park"},"featured":false,"physicalAddress":{"_type":"object","address1":"11400 SW 157th Ave","address2":"","city":"Miami","state":"FL","zip":"33196"},"mduid":"loc15282047086748","publicHours":{"_type":"object","monday":{"isOpen":false},"tuesday":{"isOpen":false},"wednesday":{"isOpen":false},"thursday":{"isOpen":false},"friday":{"isOpen":false},"saturday":{"isOpen":false},"sunday":{"isOpen":false},"notes":""},"geo":{"_type":"object","x":837275.745,"y":483093.784}}
{"_type":"location","_id":"loc1528204738524792","name":"West Little River Park","locationDisplayName":"","slug":{"_type":"slug","current":"west-little-river-park"},"featured":false,"physicalAddress":{"_type":"object","address1":"2450 NW 84TH ST","address2":"","city":"Miami","state":"FL","zip":"33147"},"mduid":"loc1528204738524792","publicHours":{"_type":"object","monday":{"isOpen":false},"tuesday":{"isOpen":false},"wednesday":{"isOpen":false},"thursday":{"isOpen":false},"friday":{"isOpen":false},"saturday":{"isOpen":false},"sunday":{"isOpen":false},"notes":""},"geo":{"_type":"object","x":906817.624,"y":552020.499}}
{"_type":"location","_id":"loc1464726553208196","name":"West Little River Trash and Recycling Center","locationDisplayName":"","slug":{"_type":"slug","current":"west-little-river-trash-and-recycling-center"},"featured":false,"physicalAddress":{"_type":"object","address1":"1830 NW 79 Street","address2":"","city":"Miami","state":"FL","zip":"33147"},"mduid":"loc1464726553208196","publicHours":{"_type":"object","monday":{"isOpen":false},"tuesday":{"isOpen":false},"wednesday":{"isOpen":false},"thursday":{"isOpen":false},"friday":{"isOpen":false},"saturday":{"isOpen":false},"sunday":{"isOpen":false},"notes":""},"geo":{"_type":"object","x":910041.537,"y":550607.742}}
{"_type":"location","_id":"loc1506353842933717","name":"West Lot Garage","locationDisplayName":"","slug":{"_type":"slug","current":"west-lot-garage"},"featured":false,"physicalAddress":{"_type":"object","address1":"220 NW 3rd Street","address2":"","city":"Miami","state":"FL","zip":"33128"},"mduid":"loc1506353842933717","publicHours":{"_type":"object","monday":{"isOpen":false},"tuesday":{"isOpen":false},"wednesday":{"isOpen":false},"thursday":{"isOpen":false},"friday":{"isOpen":false},"saturday":{"isOpen":false},"sunday":{"isOpen":false},"notes":"Closed Saturday and Sunday; County Holidays"},"geo":{"_type":"object","x":920075.06,"y":525211.372}}
{"_type":"location","_id":"loc146479058538798","name":"West Perrine Health Center","locationDisplayName":"","slug":{"_type":"slug","current":"west-perrine-health-center"},"featured":false,"physicalAddress":{"_type":"object","address1":"18255 Homestead Ave","address2":"","city":"Miami","state":"FL","zip":"33157"},"mduid":"loc146479058538798","publicHours":{"_type":"object","monday":{"isOpen":false},"tuesday":{"isOpen":false},"wednesday":{"isOpen":false},"thursday":{"isOpen":false},"friday":{"isOpen":false},"saturday":{"isOpen":false},"sunday":{"isOpen":false},"notes":""},"geo":{"_type":"object","x":868556.248,"y":460777.996}}
{"_type":"location","_id":"loc1528204768602370","name":"West Perrine Park","locationDisplayName":"","slug":{"_type":"slug","current":"west-perrine-park"},"featured":false,"physicalAddress":{"_type":"object","address1":"17121 SW 104TH AVE","address2":"","city":"Miami","state":"FL","zip":"33157"},"mduid":"loc1528204768602370","publicHours":{"_type":"object","monday":{"isOpen":false},"tuesday":{"isOpen":false},"wednesday":{"isOpen":false},"thursday":{"isOpen":false},"friday":{"isOpen":false},"saturday":{"isOpen":false},"sunday":{"isOpen":false},"notes":""},"geo":{"_type":"object"}}
{"_type":"location","_id":"loc1528204803108979","name":"West Perrine Senior Center","locationDisplayName":"","slug":{"_type":"slug","current":"west-perrine-senior-center"},"featured":false,"physicalAddress":{"_type":"object","address1":"17801 HOMESTEAD AVE","address2":"","city":"Miami","state":"FL","zip":"33157"},"mduid":"loc1528204803108979","publicHours":{"_type":"object","monday":{"isOpen":false},"tuesday":{"isOpen":false},"wednesday":{"isOpen":false},"thursday":{"isOpen":false},"friday":{"isOpen":false},"saturday":{"isOpen":false},"sunday":{"isOpen":false},"notes":""},"geo":{"_type":"object"}}
{"_type":"location","_id":"loc1464728994298805","name":"West Perrine Trash and Recycling Center","locationDisplayName":"","slug":{"_type":"slug","current":"west-perrine-trash-and-recycling-center"},"featured":false,"physicalAddress":{"_type":"object","address1":"16651 SW 107 Avenue","address2":"","city":"Miami","state":"FL","zip":"33157"},"mduid":"loc1464728994298805","publicHours":{"_type":"object","monday":{"isOpen":false},"tuesday":{"isOpen":false},"wednesday":{"isOpen":false},"thursday":{"isOpen":false},"friday":{"isOpen":false},"saturday":{"isOpen":false},"sunday":{"isOpen":false},"notes":""},"geo":{"_type":"object","x":865591.56,"y":466003.378}}
{"_type":"location","_id":"loc146479030058659","name":"West Transfer Station","locationDisplayName":"","slug":{"_type":"slug","current":"west-transfer-station"},"featured":false,"physicalAddress":{"_type":"object","address1":"2900 SW 72 Avenue","address2":"","city":"Miami","state":"FL","zip":"33155"},"mduid":"loc146479030058659","publicHours":{"_type":"object","monday":{"isOpen":false},"tuesday":{"isOpen":false},"wednesday":{"isOpen":false},"thursday":{"isOpen":false},"friday":{"isOpen":false},"saturday":{"isOpen":false},"sunday":{"isOpen":false},"notes":""},"geo":{"_type":"object","x":882523.175,"y":512900.441}}
{"_type":"location","_id":"loc1528204834588782","name":"Westbrook Park","locationDisplayName":"","slug":{"_type":"slug","current":"westbrook-park"},"featured":false,"physicalAddress":{"_type":"object","address1":"1325 SW 103RD PL","address2":"","city":"Miami","state":"FL","zip":"33174"},"mduid":"loc1528204834588782","publicHours":{"_type":"object","monday":{"isOpen":false},"tuesday":{"isOpen":false},"wednesday":{"isOpen":false},"thursday":{"isOpen":false},"friday":{"isOpen":false},"saturday":{"isOpen":false},"sunday":{"isOpen":false},"notes":""},"geo":{"_type":"object","x":865784.649,"y":517775.419}}
{"_type":"location","_id":"loc1528204877178198","name":"Westwind Lakes Park","locationDisplayName":"","slug":{"_type":"slug","current":"westwind-lakes-park"},"featured":false,"physicalAddress":{"_type":"object","address1":"6805 SW 152ND AVE","address2":"","city":"Miami","state":"FL","zip":"33193"},"mduid":"loc1528204877178198","publicHours":{"_type":"object","monday":{"isOpen":false},"tuesday":{"isOpen":false},"wednesday":{"isOpen":false},"thursday":{"isOpen":false},"friday":{"isOpen":false},"saturday":{"isOpen":false},"sunday":{"isOpen":false},"notes":""},"geo":{"_type":"object","x":840657.681,"y":498182.134}}
{"_type":"location","_id":"loc152820491241812","name":"WESTWIND LAKES SP TX DIST TR A","locationDisplayName":"","slug":{"_type":"slug","current":"westwind-lakes-sp-tx-dist-tr-a"},"featured":false,"physicalAddress":{"_type":"object","address1":"6411 SW 157TH AVE","address2":"","city":"Miami","state":"FL","zip":"33193"},"mduid":"loc152820491241812","publicHours":{"_type":"object","monday":{"isOpen":false},"tuesday":{"isOpen":false},"wednesday":{"isOpen":false},"thursday":{"isOpen":false},"friday":{"isOpen":false},"saturday":{"isOpen":false},"sunday":{"isOpen":false},"notes":""},"geo":{"_type":"object","x":838315.63,"y":499207.412}}
{"_type":"location","_id":"loc1528204945858406","name":"WESTWIND LAKES SP TX DIST TR FP2","locationDisplayName":"","slug":{"_type":"slug","current":"westwind-lakes-sp-tx-dist-tr-fp2"},"featured":false,"physicalAddress":{"_type":"object","address1":"6400 SW 148TH AVE","address2":"","city":"Miami","state":"FL","zip":"33193"},"mduid":"loc1528204945858406","publicHours":{"_type":"object","monday":{"isOpen":false},"tuesday":{"isOpen":false},"wednesday":{"isOpen":false},"thursday":{"isOpen":false},"friday":{"isOpen":false},"saturday":{"isOpen":false},"sunday":{"isOpen":false},"notes":""},"geo":{"_type":"object","x":842829.425,"y":499542.048}}
{"_type":"location","_id":"loc152820497606651","name":"WESTWIND LAKES SP TX DIST TR G","locationDisplayName":"","slug":{"_type":"slug","current":"westwind-lakes-sp-tx-dist-tr-g"},"featured":false,"physicalAddress":{"_type":"object","address1":"6300 SW 152ND AVE","address2":"","city":"Miami","state":"FL","zip":"33193"},"mduid":"loc152820497606651","publicHours":{"_type":"object","monday":{"isOpen":false},"tuesday":{"isOpen":false},"wednesday":{"isOpen":false},"thursday":{"isOpen":false},"friday":{"isOpen":false},"saturday":{"isOpen":false},"sunday":{"isOpen":false},"notes":""},"geo":{"_type":"object","x":840156.534,"y":500233.372}}
{"_type":"location","_id":"loc1528205014764381","name":"WESTWIND LAKES SP TX DIST TR GP1 &","locationDisplayName":"","slug":{"_type":"slug","current":"westwind-lakes-sp-tx-dist-tr-gp1"},"featured":false,"physicalAddress":{"_type":"object","address1":"6800 SW 152ND AVE","address2":"","city":"Miami","state":"FL","zip":"33193"},"mduid":"loc1528205014764381","publicHours":{"_type":"object","monday":{"isOpen":false},"tuesday":{"isOpen":false},"wednesday":{"isOpen":false},"thursday":{"isOpen":false},"friday":{"isOpen":false},"saturday":{"isOpen":false},"sunday":{"isOpen":false},"notes":""},"geo":{"_type":"object","x":840315.499,"y":498044.171}}
{"_type":"location","_id":"loc1528205056532500","name":"Westwood Park","locationDisplayName":"","slug":{"_type":"slug","current":"westwood-park"},"featured":false,"physicalAddress":{"_type":"object","address1":"11350 SW 53RD TER","address2":"","city":"Miami","state":"FL","zip":"33165"},"mduid":"loc1528205056532500","publicHours":{"_type":"object","monday":{"isOpen":false},"tuesday":{"isOpen":false},"wednesday":{"isOpen":false},"thursday":{"isOpen":false},"friday":{"isOpen":false},"saturday":{"isOpen":false},"sunday":{"isOpen":false},"notes":""},"geo":{"_type":"object"}}
{"_type":"location","_id":"loc1528205092906729","name":"Whispering Pines Hammock Preserve","locationDisplayName":"","slug":{"_type":"slug","current":"whispering-pines-hammock-preserve"},"featured":false,"physicalAddress":{"_type":"object","address1":"SW 186TH ST / SW 87TH CT","address2":"","city":"CUTLER BAY","state":"FL","zip":"33157"},"mduid":"loc1528205092906729","publicHours":{"_type":"object","monday":{"isOpen":false},"tuesday":{"isOpen":false},"wednesday":{"isOpen":false},"thursday":{"isOpen":false},"friday":{"isOpen":false},"saturday":{"isOpen":false},"sunday":{"isOpen":false},"notes":""},"geo":{"_type":"object","x":875847.748,"y":458943.878}}
{"_type":"location","_id":"loc152820512733027","name":"Wild Lime Park","locationDisplayName":"","slug":{"_type":"slug","current":"wild-lime-park"},"featured":false,"physicalAddress":{"_type":"object","address1":"14751 HAMMOCKS BLVD","address2":"","city":"Miami","state":"FL","zip":"33196"},"mduid":"loc152820512733027","publicHours":{"_type":"object","monday":{"isOpen":false},"tuesday":{"isOpen":false},"wednesday":{"isOpen":false},"thursday":{"isOpen":false},"friday":{"isOpen":false},"saturday":{"isOpen":false},"sunday":{"isOpen":false},"notes":""},"geo":{"_type":"object","x":841848.265,"y":482336.372}}
{"_type":"location","_id":"loc1528205158756611","name":"William Randolph Community Park","locationDisplayName":"","slug":{"_type":"slug","current":"william-randolph-community-park"},"featured":false,"physicalAddress":{"_type":"object","address1":"11950 SW 228TH ST","address2":"","city":"Miami","state":"FL","zip":"33170"},"mduid":"loc1528205158756611","publicHours":{"_type":"object","monday":{"isOpen":false},"tuesday":{"isOpen":false},"wednesday":{"isOpen":false},"thursday":{"isOpen":false},"friday":{"isOpen":false},"saturday":{"isOpen":false},"sunday":{"isOpen":false},"notes":""},"geo":{"_type":"object","x":859171.277,"y":444462.358}}
{"_type":"location","_id":"loc152820518799469","name":"Winston Linear Park","locationDisplayName":"","slug":{"_type":"slug","current":"winston-linear-park"},"featured":false,"physicalAddress":{"_type":"object","address1":"8650 SW 127TH AVE","address2":"","city":"Miami","state":"FL","zip":"33183"},"mduid":"loc152820518799469","publicHours":{"_type":"object","monday":{"isOpen":false},"tuesday":{"isOpen":false},"wednesday":{"isOpen":false},"thursday":{"isOpen":false},"friday":{"isOpen":false},"saturday":{"isOpen":false},"sunday":{"isOpen":false},"notes":""},"geo":{"_type":"object","x":853484.113,"y":492366.61}}
{"_type":"location","_id":"loc1503690817886111","name":"Wynwood Community Resource Center","locationDisplayName":"","slug":{"_type":"slug","current":"wynwood-community-resource-center"},"featured":false,"physicalAddress":{"_type":"object","address1":"2902 NW 2nd Avenue","address2":"","city":"Miami","state":"FL","zip":"33127"},"mduid":"loc1503690817886111","publicHours":{"_type":"object","monday":{"isOpen":false},"tuesday":{"isOpen":false},"wednesday":{"isOpen":false},"thursday":{"isOpen":false},"friday":{"isOpen":false},"saturday":{"isOpen":false},"sunday":{"isOpen":false},"notes":""},"geo":{"_type":"object","x":919583.7291606271,"y":535308.960219086}}
{"_type":"location","_id":"loc1528205225668605","name":"Zoo Miami","locationDisplayName":"","slug":{"_type":"slug","current":"zoo-miami"},"featured":false,"physicalAddress":{"_type":"object","address1":"12400 SW 152ND ST","address2":"","city":"Miami","state":"FL","zip":"33177"},"mduid":"loc1528205225668605","publicHours":{"_type":"object","monday":{"isOpen":false},"tuesday":{"isOpen":false},"wednesday":{"isOpen":false},"thursday":{"isOpen":false},"friday":{"isOpen":false},"saturday":{"isOpen":false},"sunday":{"isOpen":false},"notes":""},"geo":{"_type":"object","x":854440.66,"y":463790.28}}